店铺名字,类别,月销售,经度,纬度,地址
贡茶（高黎店）,奶茶果汁,132,113.345211,22.775267,广东省佛山市顺德区容桂街道荣安南路10号首层之二膳玉贡茶店
俨,奶茶果汁,140,113.339874,22.764032,容桂华口居委会华天市场二座首层之23A
,奶茶果汁,65,113.34006,22.76142,容桂华口居委会华城路26号首层之一
御茶LifeisLikeTea,奶茶果汁,81,113.339061,22.761146,容桂街道华口华城路44号
刷wod卡(小黄圃店),奶茶果汁,149,113.31444,22.776055,容桂小黄圃居委会联群路1号首层之三
鹿角巷(小黄圃店),奶茶果汁,277,113.309758,22.778649,容桂德胜居委会容奇大道东39号骏景金晖花园二期之二首层52号商铺之一（住所申报）
Karefree皇茶,奶茶果汁,229,113.335802,22.755617,容桂街道华口居委会华新路南十五巷4号首层之二
景茶原麦,奶茶果汁,252,113.301433,22.761183,容桂容里居委会新展路28号城光城市广场负一层B116号铺
babychook&milk,奶茶果汁,47,113.314619,22.781065,小黄圃居委会外环路2号保利外滩花园54、55号铺
雪洛可奶茶店,奶茶果汁,102,113.339031,22.757519,容桂街道华口沙河路华康坊3O号
LONGCHA,奶茶果汁,67,113.317508,22.747182,容桂街道扁蚓游会兴华东路22号扁蛎竦檬谐56号商铺，57号商铺
御品鲜贡茶,奶茶果汁,19,113.345277,22.773146,容桂高黎居委会建业路高黎市场14号铺位（住所申报）
皇冠茶,奶茶果汁,45,113.337278,22.758508,容桂华口居委会沙河路华贵坊28号首层
HelloTea,奶茶果汁,46,113.301433,22.761183,佛山市顺德区容桂容里居委会新展路28号荟景花园负一层04号铺（住所申报）
茶理斯(榄核店),奶茶果汁,245,113.337513,22.835795,榄核镇民生路94号A103
利荣年奶茶(市桥店),奶茶果汁,1428,113.35382,22.936958,市桥街西丽南路70号
珍之堡・咖啡&奶茶&小吃&简餐(榄核店),奶茶果汁,38,113.343023,22.838345,广州市南沙区榄核镇广场路172-180号101
利荣年奶茶,奶茶果汁,596,113.402359,22.797471,广州市南沙区大岗镇兴业路69号铺首层
利荣年奶茶(东涌店),奶茶果汁,71,113.455853,22.887532,广州市南沙区大岗镇东涌镇东发二区3号楼32-33号整套（不可作厂房使用）
利荣年奶茶(大石店),奶茶果汁,506,113.306747,23.023787,番禺区大石街朝阳西路90号首层
HiTea茶室(番禺西丽店),奶茶果汁,367,113.353326,22.938894,市桥街西丽南路34号西秀园25幢7号
麦果-臭豆腐手抓饼烤翅奶茶铁板鱿鱼(市桥店),奶茶果汁,1065,113.366953,22.936706,市桥街桥东路13号商铺
喜点,奶茶果汁,617,113.366547,22.918221,广州市番禺区桥南街福景路1010号、1012号
御茶贡茶(番禺店),奶茶果汁,717,113.36695,22.943625,侨联大街4号-11
益禾堂(市桥东涌路店),奶茶果汁,3470,113.366646,22.936666,市桥街东涌路134号首层
御达贡茶(市桥店),奶茶果汁,1962,113.348153,22.944137,沙头街沙头新村五十六1号102
四云奶盖贡茶(荔园新天地店),奶茶果汁,100,113.345505,22.919661,广州市番禺区沙湾镇西环路1502号荔园新天地首层A9铺
贡茶(市桥店),奶茶果汁,2184,113.376207,22.944603,市桥德兴北路427号
御沃贡茶,奶茶果汁,245,113.362835,22.937115,光明南路81号
贡茶（沙湾古镇店）,奶茶果汁,58,113.33625,22.905138,广州市番禺区沙湾镇槐花路1号
1点点（桥南奥园店）,奶茶果汁,717,113.36027,22.924257,福德路325号105铺
大口章鱼,奶茶果汁,46,113.347434,22.918932,广州市番禺区沙湾镇风情街
拾光里（哈街店）,奶茶果汁,75,113.367533,22.928201,桥南街南街南郊村南郊路243、245号
忠强老字号凉茶铺,奶茶果汁,40,113.346138,22.906363,沙湾镇中华大道
快三秒茶饮店(市桥大南店),奶茶果汁,47,113.365435,22.93528,市桥街大南路112号
大叔果渡・柠檬茶・奶茶・鸡蛋仔,奶茶果汁,49,113.346398,22.920348,沙湾镇西环路1502号荔园新天地商业广场A2幢地面广场自编12号
晌茶,奶茶果汁,21,113.33492,22.899049,沙湾镇三桂路25号之四
漾尚红・贡茶,奶茶果汁,38,113.34463,22.905919,沙湾镇沙湾大道15号之二
大口九（沙湾店）,奶茶果汁,45,113.339241,22.901563,广州市番禺区沙湾镇中华大道72号
大口九,奶茶果汁,53,113.370076,22.920218,桥南街陈涌村南业路55号101
大卡司(易发商业中心街店),奶茶果汁,212,113.363305,22.94077,广州市番禺区市桥街市桥街繁华路易发商业中心102B号
下一站茶饮,奶茶果汁,44,113.33876,22.901525,广州市番禺区沙湾镇中华大道55号铺
茶语轩,奶茶果汁,34,113.364362,22.936061,市桥街大西路25号
橘子（易发店）,奶茶果汁,111,113.361721,22.941345,广州市番禺区市桥街光明北路易发商业街西广场2号之一
王室拉茶（荔园新天地店）,奶茶果汁,31,113.346863,22.919923,广州市番禺区沙湾镇西环路1502号荔园新天地首层1号
壹茶TEA ONE(易发街店),奶茶果汁,93,113.3613701,22.94135469,市桥街光明北路34、36号（西街）西街广场1
鲜榨果汁氧吧(荔园店),奶茶果汁,9,113.345855,22.920115,荔园新天地风情街W19号
小时光,奶茶果汁,52,113.347699,22.943425,沙头街沙头新村四十五街12号
茶冈,奶茶果汁,43,113.35539,22.929633,市桥街西丽南路355号
royaltea皇茶(康乐路店),奶茶果汁,9,113.35543,22.944475,市桥街康乐路129号
CatOne炸串下午茶,奶茶果汁,78,113.368566,22.949684,市桥街大北路永恒大街1号B13
鹿谷小镇(西丽店),奶茶果汁,40,113.353836,22.936886,市桥街西丽南路97号
蜜雪冰城-冰淇淋与茶(市桥店),奶茶果汁,178,113.3661373,22.9416198,广州市番禺区市桥街繁华路1号友谊中心首层142号(番禺宾馆斜对面潮荟东门)
慕心甜品,奶茶果汁,55,113.373445,22.949835,市桥街黄编村新园坊二街东二巷2号
贡茶(德胜路店),奶茶果汁,44,113.374232,22.93343,市桥街德胜路168号103
茶颜观色(市桥汀沙步行街店),奶茶果汁,56,113.364132,22.946991,桥兴大道68号
三生三茶(市桥店),奶茶果汁,65,113.367429,22.94671,番禺区市桥街大北路298号
御茶(大北路店),奶茶果汁,38,113.368197,22.947947,广州市番禺区市桥街大北路326号
大口九,奶茶果汁,38,113.378216,22.9415,广州市番禺区市桥街沙圩西大街46号
小野寺の茶(市桥店),奶茶果汁,10,113.36348,22.940816,市桥街北郊新村15巷7号101
柚雪(市桥店),奶茶果汁,8,113.36291,22.941666,市桥街繁华路57号首层109号(金口岸大厦一层）
绘e茶,奶茶果汁,12,113.356491,22.949054,市桥街捷进中路67号
醇源饮品小吃,奶茶果汁,4,113.358431,22.906711,沙湾镇龙岐路518号。
茶源,奶茶果汁,12,113.373533,22.935083,市桥街清河东路44号
茶树洞,奶茶果汁,11,113.345045,22.920701,沙湾镇岐头上街南屏巷2号
卡蒂尼意大利冰淇淋,奶茶果汁,2,113.362648,22.935912,市桥街大西路147号
Z・Tea果汁&奶茶&小吃(市桥店),奶茶果汁,4,113.361867,22.947989,市桥街富华西路2号百越广场内广州市钻汇珠宝广场B区02号（B区萨菲门面对出外飘台）
熙熙奶茶,奶茶果汁,7,113.354458,22.932466,广东省广州市番禺区市桥街道西丽南路266号华侨城(西丽路)
VIMI微觅(禺山广场店),奶茶果汁,1,113.366215,22.939374,广州市番禺区市桥街大北路102号地下层、首层（部位：一楼119）
喜悦之茶(市桥店),奶茶果汁,1,113.365622,22.941368,广东省广州市番禺区市桥街道易发东街新力潮荟购物广场
嘻茶夫,奶茶果汁,35,113.368803,22.916181,桥南街道陈涌村金业街40号
Leotea你好茶,奶茶果汁,4,113.38843,22.930747,市桥街兴泰路盛兴大街102-134（双号）整幢盛兴大街108号首层
灿茶(东涌店),奶茶果汁,56,113.366564,22.935873,市桥街道东涌路129号首层A016
食侣行Eatmate,奶茶果汁,41,113.376467,22.914116,桥南街福奥二街12号
有块田(大北路店),奶茶果汁,369,113.366883,22.945496,市桥街大北路236号
米可醍饮品,奶茶果汁,59,113.368983,22.922131,桥南街汇景大道9号铺
QQ奶茶,奶茶果汁,48,113.36594,22.935824,"广州市番禺区市桥街大南路128,130号首层,二层"
益禾堂(市桥易发街店),奶茶果汁,1117,113.365901,22.941445,广东省广州市番禺区市桥街道繁华路2号新力潮荟购物广场
CHOKA奶茶店,奶茶果汁,0,113.332656,22.9368,沙头街莲湖村禺山西路436号
YCclub,奶茶果汁,1,113.353014,22.926744,桥南街南堤西路627号铺
粤色茶颜(市桥店),奶茶果汁,53,113.363136,22.940423,市桥街禺山大道30号
老虎堂黑糖壳,奶茶果汁,0,113.36989,22.91817,桥南街陈涌村陈涌金业街50号101铺
拉拉热,奶茶果汁,1,113.365399,22.931109,桥南街南堤西路23号101
满记甜品（钻汇店）,奶茶果汁,132,113.36359,22.94699,广州市番禺区市桥街富华西路2号百越广场内广州市钻汇珠宝广场D101、D206
TOGETHER一起茶,奶茶果汁,1,113.366311,22.941166,市桥街大北路118号之四
御涧 tea ceremony,奶茶果汁,43,113.354039,22.950983,丹山村西歧大街25号对面（御涧）
LONGCHA龙茶,奶茶果汁,0,113.351376,22.947475,沙头街榄山村捷进西路自编69号金嘉步行街二排9号龙茶店
iFCha一夫茶,奶茶果汁,0,113.339551,22.901891,沙湾镇中华大道77号
都点星球(市桥店),奶茶果汁,28,113.365043,22.936132,市桥街大西路1号、3号之三
珍芝堂1962(大西路店),奶茶果汁,0,113.362007,22.935779,广州市番禺区市桥街大西路20号之三
果满满鲜榨果汁,奶茶果汁,33,113.36697,22.944101,市桥街侨联大街1号104
METOM,奶茶果汁,1,113.374078,22.935967,德胜路108号首层
raretea皇茶,奶茶果汁,13,113.336512,22.903634,沙湾镇安宁路2号103
岛滋古法黑糖(市桥店),奶茶果汁,59,113.364851,22.93504,市桥街大南路97号之五
ME鲜果坊(市桥店),奶茶果汁,52,113.364422,22.948618,市桥街云星汀沙村二大街文魁巷34号101
状元茶,奶茶果汁,1,113.361105,22.93578,市桥街大西路165号
小妖精甜品店,奶茶果汁,1,113.33738,22.918179,广州市番禺区沙湾镇林地大街仁和巷2号101
探客・桃胶果茶(市桥店),奶茶果汁,58,113.360786,22.939129,市桥街光明南路199号东门公交车站旁探客友利店
DESENNSEI丁先森(市桥易发街门店),奶茶果汁,0,113.365749,22.941378,番禺市桥北郊新村15巷3号102
益禾堂(市桥汀沙步行街店),奶茶果汁,573,113.3640624,22.94706418,市桥街道桥兴大道74号之一首层汀沙步行街25号商铺
卡缇诺(桥南店),奶茶果汁,2,113.368703,22.925206,桥南街桥南路七巷1号103
边度冰室,奶茶果汁,34,113.35844,22.924318,桥南街福德路奥园广场三楼
柚雪(市桥东涌路店),奶茶果汁,0,113.36688,22.93613,市桥街东涌路114号
大叔果渡.柠檬茶.奶茶.鸡蛋仔,奶茶果汁,3,113.363776,22.928274,桥南街南郊路201、203号
HITEA茶室(市桥店),奶茶果汁,536,113.361194,22.941376,市桥街光明北路41，43，45号首层之二
琉璃鲸(市桥店),奶茶果汁,303,113.35935,22.94734,市桥街富华西路190号
御堡贡茶(番禺店),奶茶果汁,1001,113.376328,22.945051,市桥街德兴北路425号
博士烤奶炸鸡汉堡,奶茶果汁,309,113.370746,22.971953,东环街龙美村清河大街18号
新作の茶SunTea(市桥易发店),奶茶果汁,313,113.363032,22.940498,广州市番禺区市桥街禺山大道26号之二
CoCo都可（雅居乐邻里r光店）,奶茶果汁,588,113.361203,22.951568,广东省广州市番禺区市桥街光明北路281号商场101一层之48、49
奶斯冰室(市桥店),奶茶果汁,168,113.381187,22.941149,市桥街沙圩一村云山大街115号
米芝莲(钻汇广场店),奶茶果汁,245,113.362388,22.9489,广东省广州市番禺区市桥街富华西路2号百越广场内广州市钻汇珠宝广场P007
1点点(富华西店),奶茶果汁,744,113.3640882,22.94648016,市桥街富华西路1号首、二层广州市番禺港禺坊首层2号铺
LIANGDU度茶(市桥光明南路店),奶茶果汁,197,113.362178,22.939033,市桥光明南路196号
普盈士王子拉茶(钻汇店),奶茶果汁,84,113.362637,22.948166,广州市番禺区市桥街富华西路2号百越广场内广州市钻汇珠宝广场D606 D607
大台北(市桥黄编店),奶茶果汁,55,113.372865,22.950226,广东省广州市番禺区市桥街道仁和堂药业(黄编分店)黄编村
桃梨花香(易发店),奶茶果汁,103,113.361562,22.941174,光明北路32号易发西街
丘大叔柠檬茶(钻汇广场店),奶茶果汁,126,113.362978,22.948145,富华西路2号钻汇广场1F层
蜜雪冰城（钻汇广场店）,奶茶果汁,48,113.363768,22.947812,广州市番禺区市桥街道桥兴大道104号之二首层
8090奶茶酷饮,奶茶果汁,44,113.354176,22.949883,市桥街桥兴大道北正大街17号首层
十五巷奶茶小吃(龙美店),奶茶果汁,66,113.369672,22.971805,广州市番禺区 东环街龙美新区大街3号101铺
大卡司(钻汇广场店),奶茶果汁,60,113.363479,22.946963,钻汇珠宝广场 东门外卖售卖亭大卡司
奶茶炸鸡汉堡咖啡休闲站,奶茶果汁,39,113.354395,22.971515,东环街榄塘村
平安堂凉茶,奶茶果汁,67,113.34835,22.989849,南村镇里仁洞村仁发广场A11档
大口九（沙头店）,奶茶果汁,52,113.348252,22.942929,广州市番禺区沙头街沙头新村四十四街1号101
CAPTAIN黑珍珠,奶茶果汁,45,113.345956,22.970299,(广东书法院旁东环街市广路232号富豪山庄上林苑2座2梯105铺
大口九(大罗店),奶茶果汁,41,113.350006,22.959016,大罗塘西约大街2号
慢茶漫语奶茶小吃,奶茶果汁,57,113.369231,22.956555,市桥街云星珠坑村矮岗二巷1号101室
大台北茶饮(丹山店),奶茶果汁,19,113.35468,22.951983,市桥桥兴大道丹山旧村扶风大街56号  大台北茶饮
贡茶（石岗店）,奶茶果汁,181,113.397418,22.93924,大龙街市莲路石岗东村段52号之3铺
Koi(广州喜悦天地店),奶茶果汁,49,113.361166,22.947753,广州市番禺区市桥街光明北路223号整幢（部位：126）
进口啤酒吧,奶茶果汁,26,113.365277,22.947892,番禺区市桥街汀沙一大街21号
绿岛奶茶,奶茶果汁,34,113.378953,22.961992,东环街蔡一村二中路南8号101
皇茶（富华店）,奶茶果汁,46,113.365416,22.947203,广州市番禺区市桥街富华中路30号之一
抖茶(蔡边店),奶茶果汁,29,113.377972,22.96394,东环街蔡二村红门东坊大街13号101
七钟茶&麻辣烫(番禺永旺店),奶茶果汁,43,113.398116,22.937528,大龙街石岗北路商业二街111号
蜜澄,奶茶果汁,21,113.348641,22.959895,沙头街大罗村中约一街10号101
果大爷・果汁(钟村美食城店),奶茶果汁,99,113.314248,22.974284,钟村街解放路75号之二101之208
舞茶道（市桥店）,奶茶果汁,32,113.36285,22.9476,广州市 番禺区市桥街富华西路2号百越广场砖汇珠宝广场A区03号华为手机对面
520一杯会告白的茶,奶茶果汁,17,113.360364,22.951194,桥兴大道150号之四
老虎堂黑糖专(环城中路店),奶茶果汁,22,113.368753,22.939905,市桥街环城中路178号
吴小姐炒酸奶,奶茶果汁,25,113.363528,22.947037,广州市番禺区市桥街富华西路2号百越广场内广州市钻汇珠宝广场东门广场05号
一座一茶,奶茶果汁,67,113.316842,22.977343,钟村街毓秀东路12号之三
御茶(九鸿广场店),奶茶果汁,36,113.397625,22.940415,大龙街市莲路石岗东村41号之二1F-J04
茶掌门,奶茶果汁,1,113.31383,22.9743053,钟村街解放路102号
酒阁金吉茶饮(蔡二新村店),奶茶果汁,9,113.372507,22.960818,东环街蔡二新村西十七街1号101
绿茶啡,奶茶果汁,4,113.362002,22.947489,广州市番禺区市桥街富华西路2号钻汇珠宝广场A区休闲亭7号位
抖茶(节能科技园店),奶茶果汁,159,113.368517,22.979175,东环街番禺大道北555号番禺节能科技园内天安科技发展大厦110之二
成政桶装水店,奶茶果汁,27,113.364478,22.947792,广东省广州市番禺区市桥街道汀沙一大街5号富华园
茶少烤奶(市桥店),奶茶果汁,0,113.361678,22.945737,市桥街光明北路174、176、、178号之二
他她偶遇茶饮,奶茶果汁,8,113.344626,22.94813,沙头街沙南路58号103西铺
三茶侠,奶茶果汁,113,113.342405,22.968869,沙头街嘉品一街39号
茶奶茶小吃,奶茶果汁,54,113.348033,22.94372,"沙头街沙头村积南大街20巷6号101
龙茶"
博士烤奶(大罗店),奶茶果汁,26,113.350906,22.95874,广州市番禺区沙头街大罗村校前大街23号之105号
黑白咖啡馆,奶茶果汁,26,113.321026,22.93771,番禺区沙头街禺山西路文体创意园A幢108室
鹿角巷THEALlEY(意库店),奶茶果汁,111,113.344101,22.980335,东环街东艺路139号28栋116房
拾光里(茶与欧包敏捷上品店),奶茶果汁,473,113.346115,22.974575,东环街新俊二街71号
拾叁手作茶饮店,奶茶果汁,0,113.303241,23.010478,大石街诜村石中一路73号之103
一夫茶(市桥大北路店),奶茶果汁,29,113.366824,22.945267,市桥大北路220号
lucky贡茶(大罗店),奶茶果汁,51,113.348563,22.960381,沙头街大罗村西约十三巷1号101
鹿角巷THE ALLEY(祈福店),奶茶果汁,1808,113.3246625,22.97575193,钟村街钟三村隆辉创业公馆B座178B（保安亭入口进）
黄七姑烧仙草(番山店),奶茶果汁,2,113.363954,22.979294,东环街番禺大道北537号番禺节能科技园内番山川创业中心2号楼1区206号房屋
H小姐的花店,奶茶果汁,9,113.371885,22.969362,东环街龙美新区六巷24号103
恒茶,奶茶果汁,0,113.352943,22.977464,里仁洞马庄工业街5号1栋116
爽洋洋魅力茶吧,奶茶果汁,1,113.341346,22.950338,广州市番禺区沙头街小平村福平路2号102
如见奶茶(小罗店),奶茶果汁,0,113.345395,22.965837,沙头街小罗村进村大街二巷一号
臻雪,奶茶果汁,0,113.32321,22.968275,钟村街钟韵路1号B1032铺
摩悦茶(蔡边店),奶茶果汁,1,113.378267,22.963426,东环街市新路205号集耀广场首层T13-1号
洋糖,奶茶果汁,4,113.3614,22.9411163,市桥街光明北路41、43、45号首层之二
挞柠匠心柠檬茶,奶茶果汁,1,113.361038,22.941859,市桥街繁华路79号
满记甜品（番禺又一城店）,奶茶果汁,191,113.349021,22.998143,广州市番禺区南村镇番禺大道北381号423号
贡茶(里仁洞店),奶茶果汁,1249,113.348994,22.990014,番禺区南村镇里仁洞村环城东路1号之一广州市番禺区仁发综合市场2A-05号
茶堡奶茶(官堂店),奶茶果汁,1680,113.34954,23.013439,南村镇官堂村双桂路11号115
1点点（番禺万达金街店）,奶茶果汁,2235,113.350499,23.007343,汉溪大道东393号32
探茶(番禺万达广场店),奶茶果汁,431,113.349435,23.007817,广州市番禺区南村镇汗溪大道东（延伸段）393号金街031号探客
CHERSCHEESE干杯起司(番禺万达店),奶茶果汁,642,113.349047,23.007898,南村镇汉溪大道东（延伸段）339号34号复式
新作の茶SunTea(番禺万博奥园店),奶茶果汁,326,113.34906,23.008038,广州市番禺区南村镇智三路65号7栋171铺
鹿野茶事(保利店),奶茶果汁,89,113.33464,22.994446,钟村街汉兴中路55号201（2楼）
拾光里(万达店),奶茶果汁,151,113.351116,23.009862,南村镇万博四路68号2梯318
贡茶（万博店）,奶茶果汁,117,113.342132,23.009174,南村镇迎宾路万博中心10幢A3-A5幢通道之间首层A5-09
贡茶(大石店),奶茶果汁,2187,113.318797,23.018627,广州市番禺区大石街大山村西园坊大街5号之一101
粮全其美手抓饼（万达店）,奶茶果汁,56,113.351391,23.011707,南村镇兴南大道294号商铺（294号商铺）101房
If Only奶茶・水果茶・蛋糕(海印又一城店),奶茶果汁,59,113.348792,22.999062,广州市番禺区南村镇番禺大道北381号122海印又一城奥特莱斯广场A栋1楼if only 扶手梯旁
小确茶(大石店),奶茶果汁,1146,113.310358,23.025766,广州市番禺区大石街朝阳西路2号之3
果C益佰（万达广场店）,奶茶果汁,54,113.3487843,23.0071206,广州市番禺区南村镇汉溪大道东（延伸段）万达广场三楼 3051商铺
迷客夏Milkshop(番禺万达店）,奶茶果汁,42,113.349129,23.007423,南村镇万达金街53号铺
大口九茶饮(里仁洞店),奶茶果汁,67,113.345739,22.995392,广东省广州市番禺区南村镇里仁洞村新兴大道
超润甜品(塘步东店),奶茶果汁,40,113.345234,23.017769,广州市番禺区南村镇登云大路27号首层101
皇茶(里仁洞店),奶茶果汁,40,113.346006,22.995794,广州市番禺区南村里仁洞朝阳新区十街2号101
CoCo都可(番禺万达广场店),奶茶果汁,1037,113.349396,23.007665,广东省广州市番禺区南村镇兴南大道368号番禺万达广场W1025商铺
谷美陶(江南村店),奶茶果汁,38,113.370843,22.991434,南村镇江南村荔苑大街6号101
小确茶(番禺大石店),奶茶果汁,41,113.334474,23.012287,广州市番禺区大石街河村东路17号
8090鲜萃茶,奶茶果汁,47,113.350652,23.00219,南村镇敏捷・上城国际二期一座114铺
普盈士王子拉茶(大石店),奶茶果汁,153,113.3105613,23.02616708,广州市番禺区大石街朝阳西路2号之一
贡茶(大石店),奶茶果汁,756,113.30883,23.027873,广州市番禺区大石街北联村沙东二街49号A03
鹿角巷,奶茶果汁,342,113.307682,23.026905,大石街北联村沙东二街49号
royaltea皇茶(万达店),奶茶果汁,46,113.345398,23.015691,南村镇塘步东村登云大路12号110
岑茶,奶茶果汁,49,113.327174,23.008266,番禺大石街道华美国际5栋109岑茶
御黑堂黑糖奶茶(万达金街店),奶茶果汁,9,113.348612,23.007158,南村镇汉溪大道东（延伸段）393号（汉溪大道东（延伸段）393）161房（万达金街61号）
满客贡茶(番禺万达店),奶茶果汁,56,113.348863,23.007697,南村镇汇智三路126号满客贡茶（杰拉网咖正对面）
8090鲜萃茶(番禺大石店),奶茶果汁,34,113.311079,23.023247,番禺区大石街105国道大石段420-422号104
嘻茶夫,奶茶果汁,47,113.328561,23.023903,大石街大涌路230号103
爽洋洋茶饮(江南店),奶茶果汁,30,113.368585,22.991501,南村镇江南村南里路53号首层之一
小新天地奶茶店,奶茶果汁,10,113.306175,23.024416,广州市番禺区大石街大兴村新兴大街5号
抹简单,奶茶果汁,41,113.36286,23.018123,南村镇员岗村员岗中路9号117、118
royaltea皇茶（人人佳店）,奶茶果汁,44,113.387716,23.005202,广州市番禺区南村镇梅山大道北8号D17号
番康凉茶,奶茶果汁,42,113.344841,23.015697,南村镇塘步东村登云大路10号之一
Scheers酒吧清吧酒水饮品小吃,奶茶果汁,5,113.330279,23.006647,大石街植村工业四路18号
王子拉茶（华南新城店）,奶茶果汁,2,113.349445,23.024466,南村镇华南新城碧泉居7栋104
星星之茶(同创誉城店),奶茶果汁,116,113.377852,23.009054,同创誉城28号1栋1_105房
BGM饮品店,奶茶果汁,1,113.346875,22.995692,里仁洞新兴大道九街2号
热麦喜MAX SEE,奶茶果汁,58,113.387814,23.004805,兴业大道东人人佳购物城一楼游乐场旁
化州超润糖水,奶茶果汁,1,113.332868,23.014278,广州市番禺区大石街河村东路东十巷1号103
星语鲜饮,奶茶果汁,80,113.323929,23.0148996,广州市番禺区大石街植村三路五巷12号103
果度冷热饮,奶茶果汁,5,113.349192,22.990544,广州市番禺区南村镇里仁洞村环城东路横巷1号
粤滋味炒酸奶(钟村美食城店),奶茶果汁,74,113.314169,22.974141,钟村街解放路75号之二101之182
正点奶茶汉堡炸鸡,奶茶果汁,3,113.370239,22.972115,东环街龙美村雍睦门巷1号101
茶掌门(塘步东店),奶茶果汁,0,113.343877,23.012928,南村镇塘步东村登云大路2号之二103
时光小站,奶茶果汁,1,113.342918,23.007025,南村镇迎宾路万博中心14幢、16幢、17幢、18幢、19幢的广州市番禺区吉盛伟邦家居博览中心H20
贡茶(朝阳新区店),奶茶果汁,299,113.347416,22.996429,南村镇里仁洞村朝阳新区二街三号1楼101
BARLEYTEA简餐,奶茶果汁,16,113.329114,23.007049,大石街工业四路52号8栋107号商铺101房
咖啡先生(大石店),奶茶果汁,115,113.324706,23.014987,大石街植村三路十巷2号101
正点奶茶.炸鸡.汉堡,奶茶果汁,18,113.367605,22.992494,广东省广州市番禺区南村镇南里路83号
Toxic,奶茶果汁,4,113.341269,23.016141,广东省广州市番禺区南村镇龙山大道173-5号 华立学校斜对面
世代皇茶,奶茶果汁,4,113.348953,23.006474,南村镇汉西大道东延伸段番禺万达广场二楼2038世代皇茶店
琳琳茶奶茶果汁甜品,奶茶果汁,1,113.390298,23.004101,南村镇南华路85号兴业小区2号楼18号（茶岗路侧）
贡茶(招商城市主场店),奶茶果汁,4,113.352456,23.011585,南村镇博旺街15号
大口九,奶茶果汁,8,113.355427,22.992626,里仁洞村西福庄西环路南三街1号102
鹿角巷TheAlley,奶茶果汁,36,113.392285,23.006864,广东省广州市番禺区南村镇市新公路北段982号首层（南园酒店对面）
鹿角巷 THE ALLEY（番禺万达广场店）,奶茶果汁,70,113.348757,23.007618,广州市番禺区南村镇汇智三路112号
海海鲜榨果汁（中华美食城店）,奶茶果汁,10,113.344057,23.013136,南村镇塘步东村登云大路2号
一点点甜不甜,奶茶果汁,0,113.314867,23.018325,大石街群贤路1号之四
小尤茶,奶茶果汁,0,113.320809,23.02256,大石街大山村大涌路172号大山幼儿园对面
茗日见（南村店）,奶茶果汁,7,113.388786,23.0041,南村镇兴业大道1129-3
港V食,奶茶果汁,1,113.336116,22.990886,广州市番禺区钟村街汉兴四街22号
meettea遇见茶(大石分店),奶茶果汁,269,113.318496,23.018319,大石街大山西园坊大街9号103
浓尝品茶饮店,奶茶果汁,667,113.312939,23.03979,上]工业屯，龙腾时代c105
FTI水果调茶局(厦虻),奶茶果汁,228,113.319165,23.038739,广州市番禺区洛浦街厦虼迥下35号4座（部分407、408、415、416）
HiTea茶室(厦虻),奶茶果汁,538,113.31725,23.038657,广东省番禺区洛浦街迎宾路段19号厦蛏涛袂A区岭南购物城2街第一层69-71号铺
PAOCHAYEYE(厦虻),奶茶果汁,192,113.3163482,23.03827541,广州市番禺厦蛄肽瞎何锍且唤忠宦68号
Darling瞿茶档(厦虻),奶茶果汁,233,113.318248,23.039133,洛浦街厦虼逍呕厦蚬愠。ㄍ３倒愠。2座211铺
他她偶遇,奶茶果汁,42,113.333106,23.037139,广州市番禺区洛浦街沙溪村幸福南路62号首层之一
皇茶（厦虻辏,奶茶果汁,46,113.319341,23.039341,广州市番禺区洛浦街厦蚰下35号1座101号
新作の茶SunTea(厦蚰下返),奶茶果汁,412,113.32001,23.040131,广州市番禺区洛浦厦虼逑蚰下106号首层101
鹿角巷(大石店),奶茶果汁,97,113.31552,23.022872,大石街大山建华路17号102铺
蜜芋茶饮,奶茶果汁,84,113.319845,23.038062,洛浦街厦虼骞阒菔行呕沙溪酒店用品博览城（厦蚯）市场公1-9号
黎恩凉茶(大石店),奶茶果汁,86,113.31463,23.026491,大石街朝阳东路127号
鲜汇轩・奶茶・啤酒鸭・私房菜(大石店),奶茶果汁,324,113.310301,23.027498,广东省广州市番禺区大石街道北联村新联路收费亭旁
IFChá一夫茶,奶茶果汁,127,113.316426,23.018424,大石街大山村群贤路25号101
舒乐甜品,奶茶果汁,33,113.313956,23.039782,广州市番禺区洛浦街上]村沙蛭髀48号首层 （部位：之二）
星茶师(番禺旗舰店),奶茶果汁,6,113.329609,23.037389,大石街道沙溪村工业路2号聚好四季212（坐电梯上2楼）
粤色茶颜奶茶店(岭南电商园店),奶茶果汁,49,113.316874,23.03914,洛浦街迎宾路段19号厦蛏涛袂A区广州岭南电商园市场5街19-20号
CoCo都可(岭南购物城店),奶茶果汁,649,113.316974,23.038492,广东省广州市番禺区洛浦街迎宾路岭南购物城一层27-28号
鹿角巷(金科广场店),奶茶果汁,44,113.325268,23.009953,广东省广州市番禺区大石街道南大路金科广场
悟茶（群贤路店）,奶茶果汁,55,113.315378,23.018245,大石街群贤路富丽家园永达大厦北座1号商场（建华路群贤路路口）
8090鲜萃茶,奶茶果汁,60,113.299499,23.043099,广州市番禺区洛浦街洛溪新城吉祥北园吉祥北道194号铺
卡噗(大石店),奶茶果汁,32,113.317015,23.018049,大石街群贤路72号102
8090鲜萃茶(奥园店),奶茶果汁,40,113.306362,23.041095,洛浦街广州奥林匹克花园奥园大厦1-60号之一
8090鲜萃茶（厦虻辏,奶茶果汁,89,113.321281,23.04092,广州市番禺区洛浦街厦虼迳蛑新42号铺位之四
HEERETEA东喜(厦虻),奶茶果汁,58,113.319997,23.037738,"广州市番禺区洛浦街厦虼骞阒菔行呕沙溪酒店用品博览城（厦蚯）A区首层A047,A048"
香港星奇异.奶茶小吃(大石店),奶茶果汁,72,113.311745,23.021803,东联村大石街富石路202号星奇异（大石牌坊世纪华联超市旁）
班夫奶茶果汁水果茶,奶茶果汁,9,113.334581,23.040456,广州市番禺区洛浦街沙溪村沙蚨路135号
茶优苏CHOYOSO(大石店),奶茶果汁,0,113.311019,23.024171,大石街富贵家园华贵大厦43号铺103
盈润茶饮小吃,奶茶果汁,6,113.314985,23.019965,富丽家园富丽楼C座8号
开森茶,奶茶果汁,59,113.304221,23.02128,大石街山西岗西路自编80号103
鲜果VC(上]店),奶茶果汁,3,113.312059,23.040829,洛浦街上]综合市场南区5号铺之二
悟茶(厦虻靥口店),奶茶果汁,7,113.320268,23.038501,广州市番禺区洛浦街厦虼骞鸹街自编1号首层（部分：1003）
哆芬,奶茶果汁,8,113.314759,23.022636,大石街大山爱华路南77号A106
一座一茶,奶茶果汁,142,113.311152,23.026241,大石街富石路51号富丽城购物广场一楼大厅112号铺
玖月.茶饮.面包,奶茶果汁,179,113.31054,23.026722,大石街105国道大石段328号
SuperLemonTea超级柠檬茶,奶茶果汁,280,113.316728,23.039594,广州市番禺区洛浦街迎宾路段19号厦蛏涛袂A区广州岭南电商园市场7街25-26号
顺景茶n(广东财经大学东门店),奶茶果汁,252,113.357587,23.088857,赤沙曾园4巷15号顺景茶档，菜鸟驿站对面
1点点（赤沙店）,奶茶果汁,2859,113.355373,23.086404,广东省广州市海珠区官洲街道赤沙路自编4号号
书亦烧仙草（广州海珠财经学院校外店）,奶茶果汁,1023,113.357343,23.0893,广州市海珠区赤沙西约大街东门自编2
广州慕茶(赤沙店),奶茶果汁,533,113.355729,23.085041,海珠区赤沙南约新街8号
大口九,奶茶果汁,218,113.352892,23.067481,广州市海珠区土华西头公园旁小屋编之二
柑杯奶茶屋,奶茶果汁,53,113.355606,23.059911,小洲西成左叁巷5号
茶时光(仑头店),奶茶果汁,104,113.374935,23.078201,仑头北约一巷48号
第2站,奶茶果汁,78,113.357929,23.086912,广州市海珠区赤沙路化校西侧自编23号
TAKE(赤沙店),奶茶果汁,151,113.356784,23.086815,广州市海珠区赤沙路23-7
虫工茶吧,奶茶果汁,44,113.335791,23.085071,广州市海珠区新村南华大街南九巷13号二楼
royaltea皇茶,奶茶果汁,19,113.322865,23.078953,广州市海珠区大塘华丰新街四巷12号102
贡茶(土华店),奶茶果汁,9,113.356169,23.069012,华洲街土华村n基南三巷一号
仁恒奶茶店,奶茶果汁,41,113.317973,23.077424,上冲南约17号楼(海珠湖西北)自编巴黎道1号101
PartyGeek休闲餐吧,奶茶果汁,2,113.329642,23.091033,赤岗东路赤岗一街36号之五首层自编之一
一只酸奶牛（赤沙店）,奶茶果汁,68,113.355489,23.086724,广州市海珠区赤沙路23号之一
LUCKY・TEA,奶茶果汁,0,113.372298,23.096353,新港东路1088号1088号之一会展南五路3号凤浦中路801号803号401房自编17号
鹿角巷THEALLEY(员村四横路店),奶茶果汁,677,113.370629,23.116815,程界东村新东五巷1号101铺
贡茶(华景店),奶茶果汁,2524,113.359233,23.136475,中山大道西111号之六101铺
新作の茶SunTea(员村店),奶茶果汁,497,113.363929,23.115694,广州市天河区程界成龙街68号之三
御堡贡茶(棠东店),奶茶果汁,4786,113.383667,23.128956,棠东凌角上街五巷6号101铺
壹碗糖水(珠江新城店),奶茶果汁,1571,113.328898,23.127577,广州市天河区金泽大厦首层
午后甜品,奶茶果汁,286,113.358459,23.124437,天河区黄埔大道中163号之一101房(员村山顶东成花园)
哥丽玛奇奶茶果汁(岗顶店),奶茶果汁,1844,113.340989,23.138012,广州市天河区龙口东路145号首层北侧自编A2铺
益禾堂(暨大店),奶茶果汁,3369,113.344331,23.130063,广州市天河区陶育路新陶北街5号首层6号铺
咕噜咕噜(学院店),奶茶果汁,1014,113.374029,23.130111,广州市天河区荷光路八号金雅苑金达阁4号之一铺
KAUFAN九分茶,奶茶果汁,541,113.340402,23.127969,绿荷大街南二巷17号
胜司奶茶・小吃(棠东店),奶茶果汁,1049,113.383375,23.129528,棠东怡乐园4巷3号
茶夏(珠江新城店),奶茶果汁,498,113.332524,23.12728,黄埔大道西271号一楼103铺（玉兰汇商场入口处左边）
满记甜品（太古汇店）,奶茶果汁,337,113.33234,23.13393,广州市天河区天河路383号太古汇商场裙楼地铁上层MU23b号商铺
小兮烧仙草(华师店),奶茶果汁,242,113.34617,23.139951,华师西门门口保安室旁
大卡司（石牌西店）,奶茶果汁,510,113.338058,23.131881,石牌西路37号之五一楼自编2号
鹿角巷(上社店),奶茶果汁,1556,113.372865,23.136056,棠下上社口岗大街1号合怡农贸肉菜市场
CoCo都可（T村店）,奶茶果汁,439,113.363175,23.118442,广东省广州市天河区员村二横路11号大院都市广场商业走廊自编号0/R号商铺
益禾堂(上社店),奶茶果汁,696,113.367811,23.133226,广州市天河区中山大道西213号上社牌坊
Taning挞柠・柠檬茶(石牌东店),奶茶果汁,654,113.34294,23.129965,石牌东路36号102铺02A号
聚千味奶茶小吃,奶茶果汁,2998,113.398752,23.119105,广州市天河区车陂东岸龙光里大街4号之二
化州糖水（员村店）,奶茶果汁,99,113.366898,23.113782,广州天河区程界西三多北大街6号之一
甜大咖奶茶甜品(棠下店),奶茶果汁,332,113.380051,23.131334,棠下梅园东七巷4、5号102房
蜜语茶言(石牌店),奶茶果汁,104,113.342907,23.132431,石牌村朝阳东大街东一巷3号北铺（捷宇网吧对面）
汴京茶寮,奶茶果汁,534,113.373341,23.135069,广州市天河区上社南镇大街六巷19号之一105铺
超润甜品,奶茶果汁,258,113.383728,23.129261,广州市天河区棠东丰乐路69号101铺
鸿记甜品（员村新村店）,奶茶果汁,40,113.362188,23.120845,广州市天河区员村二横路5号D12铺
1点点（富力盈盛店）,奶茶果汁,848,113.343287,23.1190777,马场路16号118房
点点手抓饼,奶茶果汁,80,113.339329,23.126966,黄埔大道西413号绿荷西大街1号01号铺石牌村牌仿门口进来左边第一家店铺
益禾堂(棠下店),奶茶果汁,793,113.380963,23.1258,中山大道西棠下路东闸大街口自编98号之2号店
贡茶,奶茶果汁,279,113.341076,23.132283,广州市天河区石牌迎龙大街二巷1号南铺
甜不甜奶茶甜品(棠德南路店),奶茶果汁,851,113.385376,23.1318,广州市天河区棠德南路311-321号首层（部位：311号首层自编3铺）
益禾堂(华标广场店),奶茶果汁,3237,113.339685,23.141581,广州市天河区天河北路607号一楼首层1037号铺
初心甜品屋,奶茶果汁,58,113.361203,23.116779,广州市天河区员村万芳园1号102铺
橘子(员村家乐福店),奶茶果汁,516,113.358031,23.123296,黄埔大道中恒隆街3号GZYC B137
喜菲谈凼侥滩(棠下店),奶茶果汁,217,113.3737,23.129971,广州市天河区荷光路7号街区喜乐铺烧鲜生旁
Metsoda茶饮(高志大厦店),奶茶果汁,227,113.340042,23.125895,黄埔大道西120号1楼观光梯旁
尚茶.奶茶.小吃.鸡蛋仔(车陂店),奶茶果汁,140,113.394967,23.119336,车陂祠前大街16号
徐其修凉茶,奶茶果汁,86,113.339344,23.129165,石牌村绿荷西大街七巷一号
黄振龙凉茶,奶茶果汁,225,113.264077,23.121582,广州市越秀区起义路209号
贡茶（棠东店）,奶茶果汁,105,113.386715,23.126414,广州市天河区棠东东南路10号（2046美食城正门口）
益禾堂(车陂店),奶茶果汁,1322,113.397045,23.124,广州市天河区车陂高地大街58号101房
御黑堂(中山大道西店),奶茶果汁,85,113.378568,23.126317,广州市天河区中山大道西169号
平安堂凉茶黄振龙长子,奶茶果汁,293,113.340814,23.132558,石牌街道石牌村迎龙大街2号三号铺（胜家生活超市侧门对面）
澳椰甜品椰子冻(陶育路店),奶茶果汁,50,113.344613,23.129773,广州市天河区石牌东新陶北街12号首层）
TEALILABI茶研究所,奶茶果汁,216,113.383845,23.130247,广州市天河区棠东村丰乐路58-60A105房
1柠1柠檬茶(华师曜一城店),奶茶果汁,110,113.343574,23.141692,天河北路715号曜一城广场首层C21-2铺
蜜雪冰城（棠下店）,奶茶果汁,233,113.367982,23.134501,棠下上社横路第二工业区1号旁商铺-2
青沫茶颜(尚品天河店),奶茶果汁,37,113.33782,23.133646,广东省广州市天河区石牌西路1号尚品天河一楼A22-2
丘大叔柠檬茶(石牌店),奶茶果汁,367,113.339317,23.126815,黄埔大道西413号首层之13号新乐苑物业自编12号、13号1号铺
侧田家芝士蛋糕（员村店）,奶茶果汁,40,113.362445,23.121156,广州市天河区员村二横路3号
堂茶(棠下店),奶茶果汁,26,113.378594,23.126308,棠下南边大街7号102铺
平安堂凉茶,奶茶果汁,59,113.370612,23.116905,程介东村五巷一号铺之4号
宝春林凉茶(石牌店),奶茶果汁,556,113.33946,23.12889,广州市天河区石牌绿荷西大街23号1楼
答案茶(员村家乐福广场店),奶茶果汁,10,113.358185,23.12326,员村家乐福北门广场
十三星座的茶(上社分店),奶茶果汁,42,113.367306,23.132418,广州市天河区枫叶路2号博兴购物中心第一层1A-017档
十三星座的茶(棠东分店),奶茶果汁,176,113.38625,23.125269,广州市天河区中山大道西801号14号房，棠东brt车站S1出口红绿灯口旁，骏景花园八匹马正对面
奶茶小屋,奶茶果汁,19,113.357743,23.112608,员村南社大街22号之一102
Hi.TEA茶室(棠东店),奶茶果汁,294,113.389875,23.128222,棠东东路128号自编B03号
鹿角巷THEALLEY(员村店),奶茶果汁,40,113.363927,23.114799,广州市天河区员村二横路程介西村上社街3号之一
一芳台湾水果茶(猎德店),奶茶果汁,88,113.331606,23.120482,广州市天河区兴盛路10号111铺一楼冼村街道卫生服务站隔壁
鹿角巷(车陂南1号店),奶茶果汁,66,113.392773,23.115683,车陂启明大街86号101房
悸动奶茶烧仙草(燕都路店),奶茶果汁,537,113.329363,23.159404,燕都路41号之四
鹿角巷(棠下涌东路店),奶茶果汁,38,113.377924,23.128377,广州市天河区棠下涌东路善庆村首层7号
风行牛奶（石牌店）,奶茶果汁,28,113.342891,23.132662,广州市天河区石牌朝阳北大街万俪购物中心斜对面
曾氏凉茶,奶茶果汁,66,113.340989,23.132297,广州市天河区石牌迎龙大街二巷1号北面铺
冰茶故事(东圃店),奶茶果汁,77,113.399976,23.11993,车陂十五社商业北街30号商铺富康新村
芒滋（天娱广场店）,奶茶果汁,16,113.3399849,23.13557017,广州市天河区天河路621-625号(单号)地下一层自编A1-B铺
宀,奶茶果汁,29,113.38957,23.126352,广州市天河区棠东东路11号A101房
初代（天娱广场店）,奶茶果汁,6,113.340038,23.135646,天河路621号401房402单元 天娱广场4楼
津津甜品,奶茶果汁,41,113.342963,23.130911,石牌塘边大街3号1楼
汴京茶寮,奶茶果汁,113,113.400505,23.120578,广州市天河区车陂十五社商业北街60.61号商铺
827baersi(车陂店),奶茶果汁,53,113.397071,23.124383,广州市天河区中山大道中88号101房
贡茶（直通车店）,奶茶果汁,17,113.321003,23.133033,广州市天河区体育西路54号天河直通车商业广场负二层035、036、055、056号商铺
1314一杯会说话的茶,奶茶果汁,9,113.370302,23.115094,员村四横路163-2号
菠萝蜜TEA,奶茶果汁,32,113.364158,23.114982,广州市天河区员村上社大街1巷13号之二
四季茶饮小吃,奶茶果汁,35,113.401882,23.119812,东圃大马路4号自编广场L2铺
茶度(棠下店),奶茶果汁,38,113.379564,23.127091,棠下南边大街2号103房
大通冰室,奶茶果汁,17,113.402008,23.119952,广州市天河区东圃大马路4号1101房
黄仁生八珍鸡爪,奶茶果汁,0,113.371109,23.135726,上社口岗大街2号之一101房
甜啦啦(棠下店),奶茶果汁,41,113.38325,23.127083,广州市天河区棠东丰乐街2号104
甜不甜,奶茶果汁,3,113.396667,23.125293,中山大道中路87号首层自编3号、18号广州市尚品码头美食广场自编F12铺
杯言茶语,奶茶果汁,3,113.373191,23.131666,荷光路43号
直茶饮店,奶茶果汁,1,113.39439,23.121966,广州市天河区车陂大塘街2巷1号
1品茶(学院店),奶茶果汁,6,113.37286,23.12899,荷光路棠下第一工业1号铺之7（学院BRT旁边）
新作の茶SunTea(潭村店),奶茶果汁,6,113.348345,23.116822,广州市天河区花城大道770号107房
新作の茶SunTea(财富世纪广场店),奶茶果汁,147,113.340973,23.12492,广州市天河区珠江新车海安路13号首层自编03单元
饮野旅行家环球奶茶,奶茶果汁,605,113.359401,23.120172,员村西街壹号公寓旁边上斜坡右转进来百兴园6号103铺  即百兴超市对面渔具旁边巷子进来
贡茶(岗顶店),奶茶果汁,110,113.339398,23.134182,广州市天河区天河路598号负三到六层（602除外）广州百脑汇市场第五层C座手扶梯南面活动位（GZBF5C003/GZBF5C004）
森林水池果蔬原液(员村店),奶茶果汁,1,113.357371,23.121094,康湖大街99号102-1
赛百味（科韵路店）,奶茶果汁,641,113.371956,23.125624,广州市天河区科韵路16号之一102，103
ORDER柠檬茶(员村店),奶茶果汁,0,113.367879,23.120905,员村三横路1号9-2铺
新作の茶SunTea(岗顶店),奶茶果汁,944,113.339815,23.134527,广州市天河区天河路598号负三至六层（602除外）广州百脑汇市场第五层自编GZA5Y01
汴京茶寮(棠石店),奶茶果汁,253,113.36929,23.124586,建业路华翠街23号13铺之2
贡茶(天河车陂店),奶茶果汁,3172,113.394123,23.119451,广州市天河区车陂牛乳房一巷1号101房
KUMA,奶茶果汁,0,113.37993,23.126779,棠下南边大街1号102铺
侧田家芝士蛋糕（珠江店）,奶茶果汁,53,113.342542,23.11538,广州市天河区海明路22号125房
LEMONTEA|茶(棠东地铁口店),奶茶果汁,536,113.388595,23.132315,广州市天河区东南市场餐饮档B130
马会酒店,奶茶果汁,43,113.345764,23.124085,广州天河区黄埔大道西668号.广州赛马场
吾饮良品奶茶(天河车陂店),奶茶果汁,45,113.396452,23.125,广州市天河区中山大道中路87号首层自编3号、18号广州市尚品码头美食广场自编F19铺
意意茶廊・奶茶意面小吃(棠东店),奶茶果汁,439,113.383819,23.130131,棠东丰华街4号第33号铺位美华百货门口对面
泰迪珍藏?茶饮(上社店),奶茶果汁,17,113.3698,23.135493,广州市天河区上社口岗大街22号101房
COOL酷饮,奶茶果汁,9,113.367031,23.11883,今员村三横路16号之6
TEA.TWO茶室,奶茶果汁,52,113.370987,23.117448,员村四横路115号1号铺
IP茶站奶茶小食(棠东店),奶茶果汁,140,113.386408,23.126012,广州市天河区棠东东南路8号104号商铺
恋恋不忘,奶茶果汁,1,113.343923,23.129926,黄埔大道西新陶北街8，10，12号（首层）自编C12
贡茶,奶茶果汁,1,113.374672,23.129833,棠下岗元新村西一巷6号102房
初遇の茶丨奶茶小吃(岗顶店),奶茶果汁,670,113.34219,23.131273,石牌朝阳大街36号东铺
颜茶(上社店),奶茶果汁,11,113.368047,23.133286,广州市天河区中山大道西213号155房
Royaltouch皇茶,奶茶果汁,31,113.330689,23.131631,天河南二路10号之二B
foodifoodi甘草水果(龙口东店),奶茶果汁,16,113.340762,23.144107,广州天河区龙口东路370号
益禾堂(员村店),奶茶果汁,0,113.363862,23.116344,员村二横路珠山街自编2号A5铺
HiTea茶室(华景店),奶茶果汁,273,113.361509,23.133482,广州市天河区天府路303号二楼铺（部位：之二）东方都会广场后街多喝汤对面
盼茶,奶茶果汁,0,113.385819,23.124014,广州市天河区中山大道骏景花园骏北街07-08号
御茶(龙口东店),奶茶果汁,6,113.341211,23.136429,龙口东路5号龙晖大厦
1866Atease,奶茶果汁,1,113.383523,23.126009,广州市天河区棠东丰乐路2号中岛01房
御茶贡茶(天阳路店),奶茶果汁,4015,113.339315,23.144331,广州市天河区天阳路146-150号太阳广场捶染频曷ハ掠茶贡茶店（松鼠便利店旁）
贡茶(天河店),奶茶果汁,4644,113.352912,23.170541,长澳洗蠼3号-6之14号铺
赛百味（曜一城）,奶茶果汁,1044,113.343294,23.142062,天河北路717号3楼（部位：自编D13-2单元）
益禾堂(五山店),奶茶果汁,1499,113.352497,23.152334,五山岳洲路19、21号首层（部位：自编A005）
御上贡茶,奶茶果汁,4591,113.339641,23.129769,广州市天河区石牌笃行大街1号103房
益禾堂(长福路店),奶茶果汁,971,113.347478,23.166383,广州市天河区长福路207号首层21号
眷村阿嬷国民网红饭团(岗顶店),奶茶果汁,1180,113.342885,23.135583,中山大道路2号108房自编之二（自编一）
贡茶(天河客运站店）,奶茶果汁,941,113.340028,23.170102,广东省广州市天河区燕岭路591号贡茶店(天河客运站公交站牌2后面
益禾堂(天河客运站店),奶茶果汁,3256,113.339802,23.170219,燕岭路591号
1点点(五山店),奶茶果汁,1215,113.3525419,23.15147077,广州市天河区岳洲路19号首层（部位：自编B001）
HITEA茶室(天河店),奶茶果汁,1428,113.331063,23.143314,广州市天河区天寿路8号101房（好味来餐厅旁）
鹿角巷(燕塘店),奶茶果汁,697,113.327197,23.161159,广州市天河燕塘路59号（燕兴街中间燕塘大院东门，传奇冒菜隔壁）
鹿角巷THEALLEY(五山店),奶茶果汁,1587,113.346216,23.14297,广州市天河区五山路200号外围首层自编118单元
华农新作(小黄楼店),奶茶果汁,528,113.35479,23.15567,五山路483号华南农业大学巢湖路小黄楼5栋
悟茶(五山店),奶茶果汁,120,113.35203,23.152791,五山粤汉路22号首层自编A1
厝内小眷村(天河南一路店),奶茶果汁,1605,113.326794,23.130873,天河南一路100号101房
鹿角巷THEALLEY(长暗),奶茶果汁,332,113.352747,23.168671,广州市天河区长爸新3号大院长白酆鲜谐#铺1之二
王子拉茶（元岗店）,奶茶果汁,365,113.340464,23.173973,广州市天河区元岗路310号自编17栋首层A11号商铺
贡茶(同和店),奶茶果汁,5755,113.326413,23.183053,广州市白云区京溪路46号28铺
米芝莲（东方宝泰店）,奶茶果汁,649,113.324947,23.147677,广州市天河区林和中路63号B1部分及B2部分（部位:B2部分TB206）
paulfranktea大嘴猴茶饮(岗顶店),奶茶果汁,247,113.337839,23.13326,广州市天河区石牌西路1、3、5、7号首层A08单元
书亦烧仙草（五山广场店）,奶茶果汁,685,113.352438,23.152334,广州市天河区岳洲路19、21号首层自办A003铺
CoCo都可（五山店）,奶茶果汁,2879,113.352438,23.152334,广东省广州市天河区岳洲路19-21号A006铺
王子拉茶,奶茶果汁,180,113.327544,23.161562,广州市天河区燕兴路24号之一101铺
凯奶茶关东煮小吃,奶茶果汁,209,113.357986,23.167775,长兴路美景街66号商铺自编1
阿杏饭团,奶茶果汁,299,113.338518,23.170988,元岗路636号B136铺
益禾堂(京溪店),奶茶果汁,2989,113.326254,23.183798,春兰一街6号101之四
迷客夏Milkshop(五山店),奶茶果汁,204,113.353531,23.15219,岳洲路29、31号102房自编之一
大口九（长福路店）,奶茶果汁,86,113.346822,23.1662,广州市天河区长福路205号首层8号之二。
菊I茶馆(长暗),奶茶果汁,134,113.353619,23.170605,长拔魅街78号一楼102铺
台北小站(长暗),奶茶果汁,17,113.352775,23.170526,广州市天河区长澳洗蠼1排1号。
新作の茶SunTea(龙洞店),奶茶果汁,641,113.366555,23.192922,广州市天河区龙洞路环村南街1号自编龙洞商业广场B28
橘子（华师店）,奶茶果汁,91,113.345705,23.140444,广州市天河区五山路128号6房
快乐柠檬（广州岗顶摩登店）,奶茶果汁,231,113.3393855,23.13521269,天河路611号
黄记玉米汁(华师店),奶茶果汁,32,113.345442,23.140297,五山路124号之一
台北小站(长兴路店),奶茶果汁,7,113.353329,23.168854,广州市天河区长白酆鲜谐《门口南边临时1排1号商铺。
鹿角巷(沙河顶店),奶茶果汁,869,113.307439,23.147461,先烈东路202号之一
贡茶,奶茶果汁,94,113.381367,23.15921,岑村沙埔大街38号一楼东外铺01号铺
御可贡茶(龙洞喷水池店),奶茶果汁,194,113.366486,23.194778,广州市天河区龙洞环村南街6号自编龙洞一号楼04房
芋满园・纯手工芋圆,奶茶果汁,1854,113.327195,23.195275,广州市白云区同和路云新街18号102铺
悠觅奶茶,奶茶果汁,129,113.336908,23.185556,京溪街麒麟中街57号104房
益禾堂(龙洞商业广场店),奶茶果汁,403,113.366543,23.192923,龙洞环村南街1号自编龙洞商业广场B栋37号之二
梁氏甜品世家,奶茶果汁,17,113.343411,23.174443,下元岗西街西11巷2号101
益禾堂(龙洞步行街店),奶茶果汁,678,113.365274,23.195756,龙洞环村南街6号自编1号一楼东座05号3-1
鹿角巷(京溪地铁D口店),奶茶果汁,138,113.325325,23.184978,京溪街广州大道北1451号天洲广场E区102铺
姐的茶,奶茶果汁,1,113.368432,23.152426,五山路483号华南农业大学泰山学生宿舍区10栋架空层自编4号
贡茶(长拔髀返),奶茶果汁,24,113.349298,23.170315,长拔髀纷员18号A9档
鹿角巷(天河客运站店),奶茶果汁,46,113.344272,23.172997,白云区京溪大街126号
堂茶(上社店),奶茶果汁,42,113.369019,23.133769,广州市天河区上社胡岗新村五巷2号102房
茶哆哆.果汁饮品,奶茶果汁,185,113.322593,23.129129,体育西路育蕾三街24号020房
眷村粢饭团(金棠店),奶茶果汁,197,113.37742,23.127583,棠下市场北新村三巷，建乐蜂缘对面巷子进来一点点
iTi茶吧(棠下店),奶茶果汁,50,113.377885,23.129695,棠下涌东路402号108房
悸动烧仙草(龙洞店),奶茶果汁,665,113.366233,23.195491,广州市天河区龙洞环村南街6号之十三105铺
小茶印象,奶茶果汁,393,113.364613,23.198135,广州市天河区迎龙路167号1栋112铺
世代皇茶（华景新城店）,奶茶果汁,46,113.360228,23.133809,广州市天河区中山大道西160-178号首层自编之二
玛尔黛夫冰淇淋.奶茶,奶茶果汁,74,113.339857,23.170219,燕岭路591号
royaltea皇茶京溪店,奶茶果汁,65,113.3265074,23.1828031,广东省广州市白云区京溪街道京溪路46号，即京溪小学门口旁
鹿角巷(粤垦路店),奶茶果汁,61,113.328903,23.156958,广州市天河区金燕路1号A04之四
堂茶,奶茶果汁,31,113.350227,23.17142,长拔鹘职讼2号1楼
丧茶(天娱广场店),奶茶果汁,50,113.339796,23.135607,天河路621-625号（单号）501自编06铺（天娱广场5楼，电影院旁）
MOMOCHA,奶茶果汁,17,113.340355,23.171014,元岗路613号CD创意公寓前台
鹿角巷（长暗靥站店）,奶茶果汁,28,113.349273,23.178864,广州市天河区天源路521号一楼之六
奥香帝,奶茶果汁,56,113.324905,23.194519,广州市白云区同和街石桥头桥南二巷2号102房
全民果汁（华润万家店）,奶茶果汁,38,113.339856,23.141869,天河北路605号首层
火爆鱿鱼炸串(梅花园店),奶茶果汁,2,113.320748,23.179665,广州大道北梅花园商业广场一楼（外）A2
源茶 ORIGINAL,奶茶果汁,14,113.3442502,23.1397598,五山路141号尚德大厦一楼华师地铁C出口(麦当劳旁)
丰境鲜茶TeaFresh,奶茶果汁,4,113.344324,23.139729,广州市天河区五山路141号尚德美食街入口（屈臣氏旁）
toujours,奶茶果汁,4,113.341133,23.175234,天河客运站元岗路310号智汇创意园SOHO1楼 近羽荃羽毛球馆 智汇创意园区内
趣烤茶（棠下店）,奶茶果汁,65,113.378939,23.129956,棠下竹基西南六巷2号102铺
好声音TEA,奶茶果汁,14,113.383983,23.130436,广州市天河区棠东龙门路11号D栋1楼（自编）A35B
泰植枰(棠德南路店),奶茶果汁,0,113.380317,23.132323,棠德南路太阳楼自编12号101铺
澜庭坊纯手工饮品(龙洞店),奶茶果汁,200,113.365268,23.19462,龙洞环村南街6号之六115铺
新作の茶SunTea(五山店),奶茶果汁,196,113.353496,23.151776,广州市天河区岳洲路42号首层西面自编之三02
1314奶茶店,奶茶果汁,8,113.351331,23.1702,"广州市天河区长澳洗蠼28号(大利
 家生活超市隔壁)"
参棕林凉茶,奶茶果汁,141,113.349166,23.168787,广东省广州市天河区长兴街道长兴路111号102铺
森还茶,奶茶果汁,1,113.365275,23.195599,广东省广州市天河区龙洞环村南街6号自编1号楼一楼东座04房
御茶贡茶,奶茶果汁,5,113.366313,23.197192,龙洞东街聚源里一横巷2号102房
花茶（龙洞店）,奶茶果汁,1,113.364422,23.196601,农贸市场自编C05号
王子拉茶(五山店),奶茶果汁,1,113.354392,23.151041,广州市天河区茶山路251-261号（单号）首层（部位：自编106铺）
HiTea茶室,奶茶果汁,0,113.35393,23.151179,茶山路261号之一231铺
丝娃娃慢时光小屋,奶茶果汁,0,113.364525,23.197662,迎龙路167号1栋215铺
CoCo都可(龙洞店),奶茶果汁,1283,113.365421,23.195474,广州市天河区龙洞环村南街6号自编龙洞迎龙商业街A栋08号铺位
知茶先生,奶茶果汁,1111,113.364322,23.20164,广州市天河区龙洞梁婆街15号101
龙凤士多,奶茶果汁,281,113.367747,23.196077,广州市天河区龙洞聚贤小区七巷2号102房
御茶贡茶(京溪店),奶茶果汁,1325,113.322796,23.181058,梅花园梅兴街28号(广州大道北1420号麦当劳路口直进80米，左转30米）
E.TEA茶室・疯狂柠檬茶(同和店),奶茶果汁,383,113.330865,23.200883,E.TEA茶室・疯狂柠檬茶(同和店)
寸茶,奶茶果汁,224,113.366497,23.193036,龙洞环村南街1号1054铺
益禾堂(天源路店),奶茶果汁,186,113.355261,23.181567,天源路806号
大口九(京溪店),奶茶果汁,80,113.337536,23.192153,沙太北路234号犀牛角村村口(大口九奶茶店)
王子拉茶(龙洞店),奶茶果汁,80,113.365517,23.195525,广州市天河区龙洞环村南街6号自编1号楼一楼东座07
可可西里,奶茶果汁,63,113.385662,23.199991,柯木i欧岗西街3号之二201房
大口九芝士茶,奶茶果汁,56,113.368298,23.197307,龙洞河陂大街六巷6号101房
烘魔师Homessy,奶茶果汁,27,113.371097,23.201177,迎福路迎福公寓二巷5号102房
可悦茶铺（元岗店）,奶茶果汁,15,113.343481,23.17441,下元岗还原大街一巷1号101
大口九芝士奶茶,奶茶果汁,39,113.355105,23.180814,广东省广州市天河区天源路806号
ORDER柠檬茶(同和店),奶茶果汁,76,113.325431,23.196653,广州大道北同和大街15号一楼
侧田家芝士蛋糕(怡新店),奶茶果汁,41,113.325896,23.175248,广州市天河区沙太南路169石油大学培训中心北门商铺5号
台北站(龙洞店),奶茶果汁,41,113.366944,23.194247,龙洞环村南街6号之二113铺
茶小官(同和店),奶茶果汁,55,113.324649,23.196916,同和街石桥头桥南街59号102档
快乐柠檬（广州植物园站店）,奶茶果汁,152,113.366499,23.190798,广州市天河区地铁六号线植物园站D/C入口负一楼商业街A6商铺
绅拾,奶茶果汁,40,113.368378,23.196635,广州市天河区龙洞直街10号101房
黄振凉茶(京溪店),奶茶果汁,82,113.326717,23.186078,京溪街白灰场五巷6号102铺
茶匠师(沙太店),奶茶果汁,5,113.337665,23.192134,白云农批市场一区二层42-43号
Y御贡茶,奶茶果汁,9,113.365247,23.195638,广州市天河区龙洞环村南街6号自编1号楼东座楼底自编06
百花冷饮,奶茶果汁,47,113.322284,23.183135,广东省广州市白云区京溪街道麦地中街16号京骏商业城
序茶,奶茶果汁,34,113.327284,23.197949,白山东路丽庭居流动疏导自编A205
鲜萃茶(同和店),奶茶果汁,1,113.320618,23.198171,同和街握山北东街18号102房（自主申报）
茶一巷,奶茶果汁,25,113.355068,23.1813,天源路766号一楼B区16-1号铺（百千层美食广场）
红坊子,奶茶果汁,1,113.344111,23.186859,中成路301号大院自编9号9-D
登得利・茶,奶茶果汁,2,113.325291,23.198128,广州市白云区同和街道办事处北侧自编1号雄洲同和广场首层1F外08内5
柠檬鲜生,奶茶果汁,0,113.365047,23.195314,龙洞环村南街6号之十五1栋101铺之二
草根茶饮店,奶茶果汁,12,113.368842,23.199333,龙洞直街62号101铺
光合制茶・奶茶・水果茶(龙洞店),奶茶果汁,173,113.367388,23.193299,广州市天河区龙洞环村南街1号1008铺
茶印记,奶茶果汁,0,113.343579,23.174094,广州市天河区下元岗西九巷2号之一102
方块奶茶,奶茶果汁,0,113.338408,23.170998,元岗路636号元岗商业广场C109档
E.TEA茶室(元岗店),奶茶果汁,292,113.341139,23.17227,广州天河区广州市天河区元岗路600号自编8号101房
六月雪甜品,奶茶果汁,46,113.386742,23.197166,柯木i村华美商业街8号之14
黄记憨逗逗,奶茶果汁,23,113.38595,23.194552,柯木i新欧中街7号之二101房
皇茶小吃(同和地铁站店),奶茶果汁,45,113.326652,23.197544,广州市白云区同和街白山东路丽庭居商业街自编B08号档
蛙哇茶(龙洞店),奶茶果汁,21,113.366839,23.192623,广州市天河区迎龙路2号自编A27之三
皇茶(华美店),奶茶果汁,9,113.386177,23.199559,柯木i欧岗东街3号
城市猫CSCAT饮品,奶茶果汁,4,113.349854,23.178366,广州市天河区长鞍咨乘路61号首层12号铺
HiTEA茶室(京溪店),奶茶果汁,70,113.328507,23.185847,广州市白云区京溪街云景路1号首层自编2号铺
爱尚柠,奶茶果汁,0,113.343922,23.175054,广州市天河区下元岗东街福寿巷2号103铺
好声音(天河店),奶茶果汁,9,113.364576,23.196929,广州市天河区迎龙路5号153铺
恋茶社,奶茶果汁,45,113.366951,23.19472,广州市天河区龙洞环村南街13号302
大口九茶饮,奶茶果汁,18,113.324611,23.196506,同和街石桥头桥南街6号7号铺
优格花园美国自助酸奶冰淇淋茶饮(金铂店),奶茶果汁,1,113.325363,23.196209,广州市白云区广州大道北同和大街1号A079
茶语欧麦,奶茶果汁,1,113.320085,23.18208,广州大道1419号佳润广场首层、二层及三层商铺内铺
绯茶（同胜街店）,奶茶果汁,1,113.326916,23.197212,广州市白云区同和同胜街丽庭居A栋21号铺
洋糖,奶茶果汁,2,113.365397,23.194654,龙洞环村南街6号E栋13、14、15号（部位：之一）
岛滋・古法黑糖,奶茶果汁,108,113.328472,23.191836,广州大道北1968号合一国际203铺之四
陈三鼎・青蛙撞奶(白云店),奶茶果汁,0,113.320585,23.180895,京溪广州大道北1419号佳润广场首层D48号商铺
起航点休闲吧,奶茶果汁,0,113.368903,23.199895,龙洞上华园二巷1号102铺
等春风来,奶茶果汁,0,113.327143,23.200282,同和街道白山西街6号首层
GONGCHA贡茶(大源时代广场店),奶茶果汁,1902,113.349873,23.248791,太和镇大源中路99号（大源时代广场一楼）
苏咔,奶茶果汁,67,113.349758,23.241247,太和容发货运市场商业街B栋1档
37度2茶(大源店),奶茶果汁,90,113.344796,23.233976,广州市白云区太和镇大源南边大街64号102铺
御茶(永泰店),奶茶果汁,186,113.305052,23.217407,广州市白云区学山塘火车头旁边
冰起步奶茶店(永泰店),奶茶果汁,118,113.305798,23.221602,"广州市白云区永平街永泰磨刀南街31号101房冰起步壹号公寓（恒盛超市旁边
）"
尊茶(黄庄南路店),奶茶果汁,74,113.34271,23.235214,太和镇黄庄南路77号04铺（自主申报）
三生三茶(永泰店),奶茶果汁,198,113.305692,23.219215,学山塘街40号
raretea皇茶（太和店）,奶茶果汁,89,113.358857,23.2624,广州市白云区太和林安货运市场B3栋首层Z112档
雪洛可(大源北路店),奶茶果汁,41,113.358402,23.262586,广州市白云区太和镇大源北路116-130号二层Z201单元商铺
茶旅T-tea(永泰店),奶茶果汁,15,113.303764,23.217105,"广州市白云区永泰学塘山街世联永泰里c2栋,C2-202铺，红色地毯上2楼"
贡茶(大源商业广场店),奶茶果汁,460,113.349632,23.245474,广州市白云区太和镇大源商业广场阿里山贡茶
茶园李(大源东路店),奶茶果汁,0,113.356188,23.246781,太和镇大源东路87号102铺
化州爽爽糖水,奶茶果汁,18,113.348131,23.246678,广州市白云区太和镇大源大南坑街1号102铺
royaltea皇茶,奶茶果汁,403,113.349178,23.245538,太和镇大源南路108号大源商业广场（部位：东二A57）
GONG CHA(大源店),奶茶果汁,1,113.349047,23.245491,广州市白云区太和镇大源南路108号大源商业广场
茶,奶茶果汁,26,113.35335,23.248361,太和镇大源田心东路15号B2档
燕塘牛奶(大源店),奶茶果汁,0,113.358293,23.260699,太和镇大源东路47号一楼101
ROYALTEA皇茶(荃鸿广场店),奶茶果汁,369,113.361159,23.291368,太和镇米龙和乐东街3号
益禾堂(太和中路店),奶茶果汁,163,113.355712,23.293427,太和镇太和中路148号自编之2
8090鲜茶,奶茶果汁,233,113.353283,23.299698,广州市白云区太和镇太和北路104号101铺
E.TEA茶室(白云店）,奶茶果汁,99,113.361021,23.291421,太和镇彭城一街8号和乐市场A栋A1011C
MO寿司贡茶,奶茶果汁,72,113.356549,23.293518,太和镇大来南路17号一楼
茶千q・奶茶小吃(太和店),奶茶果汁,174,113.346674,23.299083,太和镇大沥路653号A3
台湾贡茶-鸭脖-小吃,奶茶果汁,1037,113.297279,23.260452,嘉禾街长氨苯9号首层2号铺
清兮的茶(太和店),奶茶果汁,43,113.357435,23.293698,太和镇朝亮中路33号101
御茶,奶茶果汁,470,113.310814,23.253755,广州市白云区永平街东凤西路20号106铺
Taning挞柠柠檬茶(太和店),奶茶果汁,302,113.358085,23.293974,太和镇朝亮中路70号101
HiTea茶室(太和店),奶茶果汁,873,113.357088,23.292927,太和镇朝亮中路14号商铺
Armali的茶(太和店),奶茶果汁,97,113.355473,23.297353,太和镇谢家庄5队宝生九巷4号Armali的茶
可可姆.奶茶小吃.手抓饼,奶茶果汁,224,113.297837,23.259101,嘉禾街长红长敖158号商铺加州汉堡对面
TANING挞柠(东平店),奶茶果汁,376,113.316874,23.250598,永平街东平东凤东路85号西铺（自主申报）
抹简单MOJIANDAN,奶茶果汁,56,113.296746,23.269744,太和镇南岭中路16号4铺
冻茶(太和店),奶茶果汁,3,113.356453,23.294251,广州市白云区太和镇联升西路101号102
请你喝奶茶,奶茶果汁,6,113.294365,23.266432,太和镇南岭龙岗南路1号8铺
BeautyTea颐茶(太和店),奶茶果汁,0,113.359503,23.291888,太和镇和乐路23号一楼101铺
偷闲驿奶茶小吃(夏良店),奶茶果汁,0,113.324653,23.276251,广州市白云区永兴河塘中街五巷2号102房
Huangtea皇茶,奶茶果汁,65,113.315418,23.254128,广州市白云区东平街东平北路32号
答案占卜茶,奶茶果汁,128,113.3154,23.25586,永平街东平村横岗新中街9号C栋C06-C20
茶人茶己,奶茶果汁,0,113.357754,23.293607,太和镇朝亮中路46号101
鹿野茶事(太和店),奶茶果汁,0,113.346853,23.299478,太和镇大沥路653号A9商铺（自主申报）
樱禾小餐吧,奶茶果汁,360,113.403404,23.378311,钟落潭镇钟东升路6巷1-5号房2号房
柠檬工坊王者荣耀店,奶茶果汁,36,113.356567,23.293736,广州市白云区太和镇大来南路17-37号商住楼1楼自编2号
莱茶,奶茶果汁,56,113.360985,23.291441,太和和乐综合市场第A栋A1006B
哈尼卡布,奶茶果汁,19,113.359276,23.293845,太和镇珊景路44号一楼
royaltea皇茶,奶茶果汁,42,113.334237,23.295815,太和镇广州民营科技园北太路1627号敏捷科创中心1号楼1层111号
御茶(太和店),奶茶果汁,51,113.360362,23.291454,太和镇和乐东街3号荃鸿广场一层A07、08铺（自主申报）
爱莉奶茶烘焙店,奶茶果汁,0,113.291212,23.333438,人和镇鸦湖村穗和西五街1号自编W区37号铺
悠茶工坊(太和店),奶茶果汁,0,113.360113,23.301162,太和镇荫兰东路2号之三401室
南茶,奶茶果汁,1,113.369199,23.343067,广东省广州市白云区钟落潭镇白沙村白沙路82号
来杯奶茶,奶茶果汁,290,113.406801,22.801976,大岗镇客家村镇北街一巷6号之2
大卡司,奶茶果汁,52,113.400781,22.794727,广州市南沙区大岗镇阳光城市广场兴业路126号
大口九(兴业路店),奶茶果汁,42,113.406882,22.802567,大岗镇兴业路29号之4
钟隹Х,奶茶果汁,60,113.404144,22.805771,广州市南沙区大岗镇东平路103号101房
美芝城(一村店),奶茶果汁,74,113.377756,22.814043,大良街道五沙居委会新科路21号首层之2
royaltea 皇茶（兴业路店）,奶茶果汁,47,113.401942,22.797093,广州市南沙区大岗镇兴业路101号
桃梨花香,奶茶果汁,49,113.401267,22.795422,大岗镇兴业路96号一层之三
淇妙屋,奶茶果汁,49,113.40067,22.795061,广州市南沙区大岗镇繁盛路51号8号
谷美陶创意饮品（大同店）,奶茶果汁,86,113.402173,22.892571,广州市南沙区东涌镇光明路29号101(临时经营场所有效期至2019年6月12日)
爽洋洋茶吧(太石店),奶茶果汁,4,113.408233,22.887827,东涌镇太石村太南路124号102
良品烧仙草(市桥店),奶茶果汁,628,113.361864,22.933971,市桥街西堤路36、38号
满茶,奶茶果汁,38,113.404284,22.799517,大岗镇兴业路430号106铺
闲隅,奶茶果汁,2,113.393219,22.914123,广州市番禺区桥南街道中心路邮电大街23号
禧御贡茶（番禺广场店）,奶茶果汁,13,113.38326,22.932935,市桥街兴泰路193号之一（部位：（3））
咕噜咕噜（番禺广场店）,奶茶果汁,361,113.387671,22.937285,广州市番禺区亚运大道永旺梦乐城负一楼
米芝莲（永旺梦乐城店）,奶茶果汁,95,113.387906,22.937048,大龙亚运大道1号0078房号.1008房号及2028房号自编TB1-2
大卡司(上轩广场店),奶茶果汁,690,113.368613,22.950566,市桥街捷进中路3号上轩广场1-3铺
新作の茶SunTea(番禺基盛万科店),奶茶果汁,232,113.386577,22.932003,广州市番禺区市桥街万科里B区G05
贡茶(沙涌店),奶茶果汁,258,113.426975,22.953384,大龙街市莲路沙涌村段101－103号金丰商业街（内编号1138贡茶店）
鹿角巷The Alley（广州番禺永旺店）,奶茶果汁,51,113.387204,22.937253,大龙街亚运大道1号0002-1房号
任性茶吧,奶茶果汁,30,113.373827,22.960498,广州市番禺区东环街蔡二新村东九街1号
大口九茶饮炸鸡汉堡,奶茶果汁,374,113.435508,22.958608,广州市番禺区大龙街富怡路149号
Cheskee芝士客,奶茶果汁,154,113.436288,22.955337,广州市番禺区石镇龙基中路15号101
匠贰叔,奶茶果汁,41,113.42111,22.947879,大龙街新桥村泰安路48号103
Koi(广州番禺永旺梦乐城店),奶茶果汁,68,113.387766,22.937249,广州市番禺区大龙街亚运大道1号0072房号
悟茶,奶茶果汁,35,113.433688,22.956702,大龙街金龙路桥边街62号铺
爱茶乐餐饮,奶茶果汁,28,113.398939,22.934986,广州市番禺区大龙街清河东路清河市场v21档
小汐仙草,奶茶果汁,0,113.387213,22.943634,大龙街罗家路107号
古的茶(九鸿广店),奶茶果汁,15,113.39818,22.940699,市莲路石岗东村41号九鸿广场一楼136铺
抖茶奶茶,奶茶果汁,0,113.437426,22.955665,石镇富豪街51号
大台北奶茶(石基店),奶茶果汁,6,113.420171,22.950699,大龙街新桥村泰安路14号之一
小雨嘀嗒休闲站,奶茶果汁,0,113.437389,22.950415,石镇市莲路石村段2号1栋103铺
遇见鲜茶,奶茶果汁,53,113.438491,22.954836,石基镇岐山中路13号之二号铺
Ground(番禺店),奶茶果汁,0,113.432938,22.956126,广州市番禺区大龙街金龙路84号
茶理斯,奶茶果汁,125,113.397883,22.937264,广州市番禺区石基镇石岗步行街
芝士王茶Mr.KING(南村店),奶茶果汁,185,113.387222,23.004423,南村镇人人佳F
皇茶,奶茶果汁,123,113.417765,22.990069,广州市番禺区石基镇金龙路金山村段21号之3
拾光里（南村店）,奶茶果汁,131,113.387535,23.003937,梅山大道北8号南广场202
royaltea皇茶(雅居乐店),奶茶果汁,43,113.364493,23.016988,番禺区南村镇员岗七号小镇A112号
圣歌绿岛,奶茶果汁,38,113.394598,23.008562,广州市番禺区南村镇南山大道105号
壹起饮吧,奶茶果汁,50,113.399386,23.00675,南村镇南村恒美大堂街18号101
四海冰酷,奶茶果汁,3,113.391612,23.002606,广州市番禺区南村镇兴业大道1228号之6
yoyo悠闲阁,奶茶果汁,42,113.397459,22.987002,南村镇坑头村北约街西一巷9号
大口九茶饮(南村店),奶茶果汁,32,113.367949,22.992524,南村镇南里路64号-3
黄振龙（潮楼店）,奶茶果汁,0,113.384422,23.006817,文明路18号首层
找茶,奶茶果汁,524,113.388166,23.037157,广州市番禺区小谷围街南亭村西社大街12号103
蜜雪冰城(大学城南亭店),奶茶果汁,738,113.388039,23.037733,广东省广州市番禺区小谷围街道南亭村大街45号广东工业大学(大学城校区)
Co叔Co茶（南亭店）,奶茶果汁,316,113.38748,23.03798,小谷围街南亭村南亭大道五号楼13号商铺
易喜良品,奶茶果汁,166,113.426015,23.041676,新造镇和陆路自编7号之1号2号
台湾贡茶寿司料理(南亭店),奶茶果汁,259,113.3861423,23.04088357,广州市番禺区小谷围街南亭村南亭大道自编47号108档铺位
贡茶,奶茶果汁,6,113.389994,23.035598,小谷围街南亭村下朗街自编1号之一103
赛百味（gogo新天地店）,奶茶果汁,118,113.392383,23.061008,广州市番禺区小谷围街贝岗村中二横路1号高高新天地商业广场二期二层第B2A007号
橘子(星座广场店),奶茶果汁,743,113.403983,23.121031,广州市天河区中山大道中282号
肥家油炸,奶茶果汁,2741,113.405773,23.119393,广州市天河区东圃祥圃大厦104铺
御茶贡茶(东圃店),奶茶果汁,4428,113.405102,23.119877,中山大道中290号(怡东苑小区3栋)
淘淘茶・奶茶小吃(东圃店),奶茶果汁,387,113.400532,23.119872,车陂十五社商业北街37号
贡茶(天河店),奶茶果汁,91,113.386743,23.126324,棠东2046美食街入口处
1点点(东圃店),奶茶果汁,2058,113.401121,23.1185634,广州市天河区车陂十四社东兴楼首层4号之二号铺位
益禾堂（珠村店）,奶茶果汁,2821,113.418744,23.117969,中山大道中1033号103
化州六月雪甜品,奶茶果汁,46,113.393628,23.114969,广州市天河区车陂启明涌边街3号A101房(食尚开心花甲粉旁边)
一芳台湾水果茶(棠东店),奶茶果汁,646,113.385742,23.125532,广州市天河区中山大道西855号04号铺
茶嘉宅,奶茶果汁,239,113.372453,23.120624,程介坑10号102房
黄记奶茶手抓饼,奶茶果汁,759,113.421858,23.123924,珠村文华大街33号102房
Taning挞柠・柠檬茶(东圃店),奶茶果汁,1603,113.402594,23.119429,雅怡街9号首层
心怡柠檬茶(东圃店),奶茶果汁,554,113.402332,23.124596,中山大道中379号大创工业园（部位：E座1楼自编5108房）
茶巷(黄村店),奶茶果汁,111,113.411682,23.119814,黄村龙步大街新一巷9号
新作の茶SunTea(车陂店),奶茶果汁,544,113.396755,23.125391,广州市天河区中山大道87号首层自编17号
新语初茶(车陂店),奶茶果汁,72,113.39155,23.120273,广州市天河区车陂隆兴公大街坑边西一巷2号101房
芝士茶馆(东圃店),奶茶果汁,568,113.402872,23.119323,广州市天河区东圃大马路1号之七
仨人奶茶・烧烤,奶茶果汁,83,113.410842,23.115227,广州市天河区前进街道宦溪横街9号
CoCo都可（东圃雅怡店）,奶茶果汁,823,113.402026,23.11848,广东省广州市天河区东圃大马路雅怡街68号
茶驿站奶茶,奶茶果汁,59,113.419152,23.120077,珠村南门社新街十一巷2号
冰之物语(东圃珠村店),奶茶果汁,293,113.41941,23.119981,广州市天河区珠村南门社新街十六巷1号101房
好滋味芝士热狗店,奶茶果汁,112,113.447523,23.101908,港湾路359号
堂茶（大沙地店）,奶茶果汁,110,113.440382,23.097743,珠江村蟹山路38号一楼
茶少烤奶(漫广场店),奶茶果汁,618,113.424255,23.112751,广东省广州市天河区前进街道漫广场外铺
大口九茶饮炸鸡汉堡薯条(前进村店),奶茶果汁,39,113.412627,23.107668,广州市天河区石溪牛涌街七巷1号1楼之二房
鹿角巷+小吃(棠东店),奶茶果汁,53,113.384764,23.126312,广州市天河区棠东官育路6号105铺
芋观园,奶茶果汁,46,113.402525,23.119953,东圃大马路4号自编D栋D116房必胜客后面
杜小姐茶饮,奶茶果汁,19,113.380422,23.122656,科新路棠下一社工业区3号一楼A4档（骏业商务大厦旁）
芋香豆花（黄村店）,奶茶果汁,49,113.412758,23.120596,广州市天河区黄村园丁路9号自编10号铺
小幸运奶茶,奶茶果汁,36,113.410592,23.113839,宦溪南边街17号102房
堂茶,奶茶果汁,32,113.409665,23.122182,广州市天河区王园路12号107铺
一茶OneTea,奶茶果汁,86,113.424868,23.112498,中山大道中1242号整栋
贡茶（漫广场店）,奶茶果汁,43,113.424454,23.112421,中山大道中1242号整栋
亿寿堂凉茶,奶茶果汁,48,113.411846,23.122676,黄村石桥头下六巷1号101房
coba酷吧（广场店）,奶茶果汁,37,113.398009,23.121753,广州市天河区车陂龙口大街9号（部位：自编首层01号）
SmileyTea斯麦（漫广场店）,奶茶果汁,37,113.424307,23.112829,中山大道中1242号整栋
漫茶MANCHA(珠村店),奶茶果汁,61,113.419923,23.117677,广东省广州市天河区中山大道中
堂茶,奶茶果汁,18,113.411516,23.124223,黄村环村西路2号
鲨鱼sharktea(棠下店),奶茶果汁,45,113.380624,23.130943,广东省广州市天河区棠下梅园东路大片路八巷1号
咖茶,奶茶果汁,14,113.396667,23.120737,燕塘牛奶(高地大街)广州市天河区车陂高地大街5号102房
甜不甜茶饮（漫广场店）,奶茶果汁,39,113.424289,23.112362,中山大道中1242号整栋
皇茶,奶茶果汁,25,113.413633,23.108888,桃园南二街128号
茶女子(车陂南店),奶茶果汁,47,113.3908662,23.11670309,广州市天河区车陂路40号之4房
D一点点,奶茶果汁,39,113.386626,23.125866,广州市天河区棠东东南路8号106
弗蕾亚,奶茶果汁,53,113.41843,23.118408,中山大道中1033号A栋首层101
鲜动力茶饮 （漫广场店）,奶茶果汁,2,113.424663,23.112248,中山大道中1242号整栋
茶桂坊,奶茶果汁,7,113.397271,23.115844,东圃大马路西二巷103号A3栋21房
小茶印象,奶茶果汁,12,113.453921,23.106993,丰乐北路68号中鼎名汇二楼251
琉璃鲸,奶茶果汁,2,113.404545,23.120646,广州市天河区中山大道中286号105房
royaltea皇茶(车陂店),奶茶果汁,6,113.395,23.123923,广州市天河区车陂北门龙塘巷2号107房（车陂地铁C出口旁边）
新作の茶SunTea(羊城创意园店),奶茶果汁,185,113.383045,23.118649,广州市天河区黄埔大道中309号自编3-17新作之茶
好声音奶茶店,奶茶果汁,3,113.4098,23.122542,黄村王园路16号一楼6房
茶小满,奶茶果汁,0,113.409793,23.122407,王园路16号一楼之7（茶小满）
唱茶,奶茶果汁,0,113.402264,23.114908,东圃二马路61号之3房
提抹以茶・蛋糕・奶茶・小吃,奶茶果汁,121,113.394362,23.122487,广州市天河区车陂大塘街2号之一提抹以茶（车陂店）
鹿角巷(黄村店),奶茶果汁,0,113.409779,23.125089,广州市天河区黄村大道5号（部位：101自编A128）
新作的茶(广州美林Mlive天地店),奶茶果汁,0,113.415484,23.104691,广州市天河区黄埔大道东663号美林M・live天地三层3F059号铺
小茶铺奶茶甜品小吃,奶茶果汁,78,113.409213,23.109234,石溪桥头新街二巷3号102铺
想巷台式厚奶茶(棠东店),奶茶果汁,136,113.383447,23.126027,中山大道西777号107室
欧麦喜手摇奶茶.小吃(学院店),奶茶果汁,52,113.371902,23.129375,广州市天河区荷光路1号学院公交站
贡茶(黄村西路店),奶茶果汁,67,113.408434,23.124668,广州市天河区福元中路2号A102房
台湾贡茶(东圃地铁口店),奶茶果汁,39,113.401119,23.109747,广州市天河区东圃二马路72号自编25房
Taning挞柠柠檬茶(珠村店),奶茶果汁,0,113.421032,23.116977,中山大道中1059号122房
大师作茶(广州棠东店),奶茶果汁,37,113.389596,23.125839,棠东东路3号远洋创意园A106大师作茶
奈乃,奶茶果汁,1,113.40564,23.117685,广州市天河区康乐新村五巷10号101房
TnCo茶与咖饮品店,奶茶果汁,1,113.401862,23.126589,广州市天河区珠江旭景熙苑33号商铺
大台北(广州黄村店),奶茶果汁,7,113.411354,23.126556,广州市天河区荔苑路18号2区自编04房
黑露白霜,奶茶果汁,1,113.445651,23.103211,大沙西279号
舒呼SOHOOLTEA,奶茶果汁,0,113.405518,23.117217,康乐新村十四巷四号102
良食茶铺(珠村店),奶茶果汁,0,113.426643,23.119517,珠村东横三路东横三路12号
鹿角巷THEALLEY(黄村店),奶茶果汁,155,113.410217,23.124404,广州市天河区黄村大道5号101自编A95（正新鸡排路口进来20米）
方糖故事,奶茶果汁,424,113.384288,23.161702,岑村红花岗下街24号02铺
奶茶的味,奶茶果汁,298,113.382518,23.162027,岑村红花岗西街4号101
LUCKYTEA小确茶,奶茶果汁,457,113.407356,23.166357,华观路万科云城米酷B栋-106
贡茶,奶茶果汁,68,113.381907,23.164941,岑村圣堂大街45号102铺
水果日记(汕头果汁冰店),奶茶果汁,147,113.41671,23.164657,天河区新塘新园新村三区二巷11号铺3房
趣烤茶,奶茶果汁,83,113.40127,23.154874,沐陂大街31号101
超润甜品,奶茶果汁,62,113.383559,23.161504,红花岗下街15号首层101铺
大口九奶茶咖啡小吃(沐陂店),奶茶果汁,111,113.399855,23.153372,广州市天河区新塘街沐陂宝庆里1号
CJ Tea仓井の茶(万科店),奶茶果汁,433,113.409685,23.165401,华旭街4号111房（万科云城米酷C2-111铺）
皇茶（沐陂店）,奶茶果汁,68,113.398979,23.153619,广州市天河区沐陂大街38号之三16号商铺
茶少烤奶(棠东店),奶茶果汁,134,113.386221,23.125776,棠东东南路5号首层之3商铺
益禾堂(新村南街店),奶茶果汁,1193,113.415422,23.164595,广东省广州市天河区新塘街道新园新村南街3号铺
吃呗,奶茶果汁,9,113.387123,23.131539,广州市天河区棠东东南楼B座第110号
北欧时光生日蛋糕烘焙店,奶茶果汁,2,113.402142,23.164511,广州市天河区高塘路235号07栋0106
DKJ咖啡茶饮(小新塘店）,奶茶果汁,18,113.409559,23.158438,河区新塘西约新村大街13号103房
红桃兔(东圃店),奶茶果汁,343,113.405959,23.123587,东圃镇黄村西路56号首层
TeaBrands偶遇奶茶(天河店),奶茶果汁,58,113.40875,23.15969,新塘西约新村大街25号102房
李茶(天朗明居店),奶茶果汁,19,113.391276,23.125127,广州市天河区中山大道西路1021号首层铺
新作の茶SunTea(绿地中央店),奶茶果汁,924,113.431723,23.164637,广州市黄埔区联合街科学大道52号113房
皇茶(松岗大街店),奶茶果汁,26,113.38492,23.160675,岑村松岗大街四巷一号1楼1铺
倾心小屋美食店(新泰商业街店),奶茶果汁,68,113.416477,23.161901,新泰街1号101铺
棠芯,奶茶果汁,49,113.387883,23.1316,广州市天河区东南市场餐饮档B137
皇茶,奶茶果汁,58,113.40001,23.168838,凌塘村上街东10号101房
咔芙奶茶,奶茶果汁,42,113.413537,23.162535,广州市天河区大观中路385号1016
秋茶,奶茶果汁,23,113.407736,23.155591,天河区新塘新景路38号自编114房
壹品尚饮,奶茶果汁,45,113.408109,23.149681,黄村老虎佛二巷3号102房
零夏奶茶,奶茶果汁,0,113.382848,23.163014,岑村红花岗西街18号101铺
情窦小镇の茶(万科店),奶茶果汁,53,113.409539,23.166311,华观路万科云城米酷C2栋112铺情窦小镇
花果茶(岑村店),奶茶果汁,14,113.383666,23.16143,广州市天河区岑村红花岗下街1巷19号
茶不思?奶茶吧,奶茶果汁,72,113.382538,23.162152,岑村红花岗西街37号2号铺
雌凡枰(万科云城店),奶茶果汁,78,113.401696,23.168844,广州市天河区华观路1933号之三105房
皇茶(万科云店),奶茶果汁,32,113.40243,23.16809,天河区华观路1933号之一B栋138房
毛记・奶茶・柠檬茶・小吃(棠下店),奶茶果汁,97,113.380282,23.128176,棠下村达善大街37号之二铺
好茶,奶茶果汁,1,113.431993,23.163539,神舟路广州绿地中央广场B2栋206室
全民果汁（华观路店）,奶茶果汁,1,113.401695,23.168858,广州市天河区华观路1932号441房
海南特饮・清补凉・鲜榨果汁,奶茶果汁,4,113.396452,23.125,广州市天河区中山大道中路87号首层自编3号、18号广州市尚品码头美食广场自编F221铺
初心茶(棠下店),奶茶果汁,9,113.38042,23.12815,棠下达善大街43号101房
茶太teatime,奶茶果汁,340,113.383465,23.161622,广州市天河区岑村红花岗上街26号之一103铺
Taning挞柠柠檬茶(黄埔绿地中央广场店),奶茶果汁,0,113.43141,23.164913,联合街科学大道52号114房自编02铺
1品茶,奶茶果汁,38,113.384389,23.16075,岑村松岗大街四巷1号101铺
御可贡茶(岭南南区店),奶茶果汁,195,113.416492,23.165079,新园新村 四区一巷1号铺2号房
御茶铺,奶茶果汁,8,113.415903,23.165039,新园新村南街3号114铺
甜不甜(万科云店),奶茶果汁,75,113.404454,23.166878,晴旭街2号114房(自编A4栋)
Yummy蛋糕饮品小吃,奶茶果汁,294,113.388313,23.197448,广州市天河区柯木i元墩北一街35号103房
贡茶(华美店),奶茶果汁,772,113.387847,23.197454,凤凰街道华美路中山大学新华学院生活园
甜茶蜜点,奶茶果汁,315,113.365594,23.201718,广州市天河区迎福路1号103铺
厝内小眷村（龙洞店）,奶茶果汁,285,113.365922,23.195268,广州市天河区龙洞环村南街，号自编迎龙商业街A栋04铺（龙洞小学和喷水池中间）
1点点（龙洞店）,奶茶果汁,1519,113.365891,23.195263,广东省广州市天河区龙洞街道THL龙洞喷水池
只只酸奶牛,奶茶果汁,71,113.386893,23.196703,华美路8号107铺
茶百道（龙洞店）,奶茶果汁,1078,113.366364,23.195752,广州市天河区龙洞环村南街6号之十一106铺
Taning挞柠柠檬茶(柯木i店),奶茶果汁,98,113.395733,23.19279,柯木i背坪窑屋地东街6号之二2单元103房
蜜雪冰城（龙洞华润万家店）,奶茶果汁,104,113.366609,23.192452,广州市天河区迎龙路2号103铺
聚忆点茶饮(高塘石店),奶茶果汁,53,113.413111,23.190408,广州市天河区广汕二路602号首层自编109之二
一芳台湾水果茶（广州天河龙洞店）,奶茶果汁,70,113.366724,23.195762,广州市天河区龙洞南门一巷12号101铺。
麦可可饮吧(柯木朗店),奶茶果汁,27,113.400788,23.194502,柯木朗新村南街9号
royaItea皇茶（龙洞小学店）,奶茶果汁,23,113.365349,23.195631,广州市天河区龙洞环村南街6号自编1号楼东座5-1
鹿角巷THEALLEY(东方汇广场店),奶茶果汁,289,113.445417,23.186168,开创大道3327号商场124
一品茗茶水果茶(金铺北街店),奶茶果汁,159,113.407487,23.193422,柯木i金铺北街
Taning挞柠柠檬茶（龙洞店）,奶茶果汁,151,113.365399,23.195718,龙洞商业步行街自编D04
侧田家芝士蛋糕(龙洞店),奶茶果汁,22,113.364662,23.197096,广州市天河区迎龙路163号大院内B4栋主楼一楼A3
诗与远方,奶茶果汁,52,113.38611,23.208767,渔东路18号102房
氪金玩家,奶茶果汁,9,113.387652,23.202296,柯木i欧岗东街二巷4号101房
一品茗茶,奶茶果汁,1,113.400088,23.194298,广汕二路11号D栋101-1房
LOVELYPANO哎茶,奶茶果汁,0,113.424912,23.199416,联和街联和路39号101房
馨兰饮品(雅居乐幸福街店),奶茶果汁,12,113.426132,23.18402,联和街悦然大街2号-112房居家乐幸福街市(部位：09铺)
贡茶(优选科学城长安店),奶茶果汁,706,113.438034,23.187908,广州市萝岗区联和街长安街11号104房
大卡司(华润万家店),奶茶果汁,0,113.366088,23.193733,龙洞环村南街1号1048铺
卡诺琳,奶茶果汁,208,113.376737,23.358458,钟落潭镇良城三路144号
大口九(良田二小学店),奶茶果汁,65,113.387897,23.350345,钟落潭镇良田村良田大道82号(良田二小学旁)
贡茶（竹料店）,奶茶果汁,66,113.374384,23.359019,广从五路1152号
益禾堂（钟落潭店）,奶茶果汁,0,113.40405,23.383986,钟落潭镇钟升东路3号
鲜果VC(太石店),奶茶果汁,62,113.406276,22.886371,东涌镇太石村太南路83号101
海岸茶度,奶茶果汁,58,113.458187,22.852076,东涌镇同康路4号107
大台北珍珠奶茶,奶茶果汁,64,113.428072,22.954448,广州市番禺区石基镇沙涌村沙环东路五号大台北奶茶店
遇见奶茶,奶茶果汁,228,113.427965,22.954611,大龙街沙环东路7号102
人生若只如初见,奶茶果汁,65,113.43624,22.954221,石基镇龙基南路60号
拾光里（石基店）,奶茶果汁,180,113.438244,22.955461,石基镇岐山中路41号
黑泷堂,奶茶果汁,460,113.465415,22.957322,石基镇市莲路石基地铁站自编1号之13、15号铺
黄振龙凉茶（龙基店）,奶茶果汁,1,113.436189,22.953914,石基镇龙基南路48号
ZERO TEA 零茶,奶茶果汁,5,113.439077,22.956658,石镇岐山中路71号
加一c茶饮,奶茶果汁,3,113.446208,22.948692,石基镇石基村八达大街32号
四云奶盖（石基店）,奶茶果汁,40,113.4387,22.955786,石基镇岐山中路39号
豆豆茶吧,奶茶果汁,46,113.446524,22.948598,石镇八达大街30号101
摩咔斯,奶茶果汁,13,113.486528,22.970299,石楼镇沙浦东路30号铺
十步的茶(莲塘路店),奶茶果汁,0,113.442874,22.955154,广州市番禺区石基镇莲塘路2号七座四楼402
鹿角巷 THE ALLEY(沙涌店),奶茶果汁,56,113.427272,22.953362,广州市番禺区大龙街市莲路沙涌村段107号105铺
大卡司(番禺城市广场店),奶茶果汁,98,113.44187,22.954862,石镇莲塘路76号S26
偶遇ta,奶茶果汁,1,113.437044,22.956181,广州市番禺区石镇龙基北路东二巷13号102
超润甜品餐吧,奶茶果汁,1,113.44319,22.95549,广州市番禺区石基镇莲塘村莲塘大街1号104
乐茶阁(化龙店),奶茶果汁,71,113.4607,22.998411,化龙镇潭山村工业一路一街7号101
闲亭LeisureHouse,奶茶果汁,67,113.41823,23.036754,新造镇兴华路59号101
贡茶,奶茶果汁,1043,113.42599,23.041659,广州市番禺区新造镇秀发村明岗路自编2号
咔茶饮吧,奶茶果汁,123,113.419827,23.033259,广州市番禺区新造镇新潭公路永发商业城11座6号、7号
骑士老虎茶・黑糖（化龙店）,奶茶果汁,117,113.460917,23.04597,兴业东街83号化龙海印国际电影城旁
88度(化龙店),奶茶果汁,107,113.453475,23.04104,化龙龙源路37号
大口九（新造店）,奶茶果汁,30,113.418275,23.036299,广州市番禺区新造镇兴华路26号同发时代广场A42号铺
TANCCA叹咖(化龙店),奶茶果汁,71,113.454153,23.041142,广州市番禺区化龙镇龙源路92号
鹿角巷THE ALLEY(番禺化龙店),奶茶果汁,59,113.449531,23.042089,化龙镇龙源路28号103之一
檬哒柠檬茶饮品,奶茶果汁,6,113.454509,23.044503,化龙镇东南村宝堂路70号-1
御茶贡茶（下沙店）,奶茶果汁,3049,113.44851,23.10416,下沙村仁和里27号铺一
E.TEA茶室（黄埔店）,奶茶果汁,793,113.451806,23.106825,黄埔店大沙地东183号大院3号103-104
杨小7茶饮小吃店,奶茶果汁,121,113.449456,23.102582,下沙新村西大街8号1楼
鹿角巷THE ALLEY,奶茶果汁,1008,113.4564,23.099872,黄埔东路298号黄埔花园惠润广场第一层1090铺位
一个榴芒(大沙东店),奶茶果汁,276,113.458169,23.105118,新溪北塘南42号一楼左铺
新作の茶SunTea(珠村博裕广场店),奶茶果汁,731,113.418821,23.11718,广州市天河区中山大道中1088号101房A101-A104、A106-111（部位：A107房）
1cc(珠村店),奶茶果汁,1066,113.418445,23.118316,广州市天河区中山大道中1033号盈江广场110A号铺
奉玉贡茶+炸双皮奶(珠村店),奶茶果汁,70,113.425887,23.119864,珠村东环路88号111-2铺
念茶,奶茶果汁,132,113.419523,23.114576,盈溪路98-106之4号
橘子（黄埔潮楼店）,奶茶果汁,112,113.446295,23.103854,广州市黄埔区大沙西路311号B203
CoCo都可(漫广场店),奶茶果汁,527,113.42486,23.11268,广州市天河区中山大道中1242号整栋（部位：漫广场L1-108a房）
一座一茶,奶茶果汁,63,113.446391,23.104409,港湾路495号
禾茶(大沙地店),奶茶果汁,77,113.45285,23.104148,下沙村东横北街七巷1号2号铺
台湾贡茶(东圃店),奶茶果汁,152,113.401066,23.111494,广州市天河区东圃二马路69号6号
堂茶（珠村1店）,奶茶果汁,60,113.422481,23.119713,广州市天河区珠村南门富华西街3号102房
化州糖水店（双岗）,奶茶果汁,47,113.480307,23.095175,双岗黄岗大街瑞祥里1号首层商铺
堂茶,奶茶果汁,5,113.443819,23.112247,企岭街10号103铺
优资茶YOKYTEA,奶茶果汁,76,113.447184,23.102458,港湾路381号
御丽贡茶(吉山店),奶茶果汁,30,113.426043,23.127782,吉山西新街1号之三101房
暮光之城饮品店,奶茶果汁,14,113.449031,23.103033,下沙新村西横街11号一楼102铺
超润糖水城,奶茶果汁,51,113.436549,23.142409,广州市天河区大淋岗大街56号1号铺
茶印（珠村店）,奶茶果汁,32,113.421574,23.125144,珠村上社新村二巷1号103铺
茶一世・TEA(万科城市花园店),奶茶果汁,107,113.469484,23.10563,广东省广州市黄埔区文冲街道石化路193号之一118铺
林小媛・芒果绵绵冰・披萨・茶饮・小吃(黄埔店),奶茶果汁,64,113.45406,23.107112,丰乐北路68号中鼎名汇南门手扶梯三楼335铺，林小媛
LPXTEA皇茶（文冲店）,奶茶果汁,64,113.469254,23.103261,广州市黄埔区石化路128号118房
世代皇茶(泰丰广场店),奶茶果汁,12,113.447036,23.104569,港湾路554号一楼23A
黄记玉米汁（大沙东店）,奶茶果汁,13,113.450439,23.10548,广州市黄埔区大沙东路115号102铺
御茶(文冲店),奶茶果汁,17,113.469004,23.103796,石化路文冲地铁站B出马路正对面御茶(辉记牛杂、火车票售票点旁)
御合贡茶（大沙东地铁站店）,奶茶果汁,43,113.457867,23.106998,广州市黄埔区大沙地东319号保利中誉广场首层10号
清爽一夏,奶茶果汁,17,113.473733,23.109012,江北东约塘n31号101房
咕咚咕咚(中山大道中店),奶茶果汁,34,113.424663,23.112248,中山大道中1242号整栋（部位：漫广场L1-C-006房）
ZS  SOUFFLE曼甜,奶茶果汁,25,113.419888,23.115949,广州市天河区中山大道中1116号乐都汇广场一楼曼甜
DRINKCHA尊茶,奶茶果汁,19,113.44387,23.111875,企岭街3号102
黑龙茶,奶茶果汁,15,113.479055,23.093845,广东省广州市黄埔区红山街道黄埔东路1319号322（天鸿百货三楼）
AOD茶饮(黄岗店),奶茶果汁,6,113.479928,23.095057,黄岗双岗大街福进里2号101
研魔饮品轻食（漫广场店）,奶茶果汁,1,113.424873,23.112497,广州市天河区中山大道中1242号整栋（部位：漫广场L1-C-003房）
Mr.Q港式甜品,奶茶果汁,3,113.452563,23.112692,豫章一街12号之11铺
皇茶(小Q儿童城店),奶茶果汁,1,113.416707,23.130656,广州市天河区奥体南路12号广州市高德汇奥体购物中心F101之125A
杨小贤.纯手工甜品.果茶(黄埔大沙地店),奶茶果汁,260,113.453327,23.106311,丰乐购物城首层A232号铺
益禾堂,奶茶果汁,0,113.435815,23.130899,广州市天河区吉山村坑尾路10号之一
拾壹食堂,奶茶果汁,0,113.441679,23.099266,黄埔区狮山西路13号1号铺
HEERETEA|喜・鲜萃茶(大沙地店),奶茶果汁,877,113.453342,23.106308,大沙东路208-254号广州市黄埔丰乐购物城首层A236号苏宁易购旁
雪朵拉SNOWDORA,奶茶果汁,38,113.44711,23.102851,港湾路405房
甜不甜,奶茶果汁,33,113.446386,23.103495,大沙地西路289号铺
乌叶,奶茶果汁,86,113.453519,23.108661,丰乐北路116号102
琳娜时光,奶茶果汁,42,113.450291,23.099158,广州市黄埔区黄埔公园30号大湾区数字娱乐产业园B栋1014房
贡茶（吉山店）,奶茶果汁,35,113.434012,23.128923,广州市天河区吉山东新街21号101房
世代皇茶,奶茶果汁,32,113.419362,23.118333,珠村南门社新街3号一楼103
埋位,奶茶果汁,38,113.442824,23.101904,大沙地西路97号大院（面向123中学侧面）铺位之（八）
书亦烧仙草,奶茶果汁,779,113.451439,23.106093,大沙地东156号
凡LOK.CAA,奶茶果汁,49,113.456281,23.101179,惠润广场二楼2005凡
茶阿玛,奶茶果汁,1,113.447075,23.102754,港湾路409号
一城一茶,奶茶果汁,1,113.442509,23.103036,大沙西路97号仓库外大院自编110房
鹿角巷THEALLEY,奶茶果汁,68,113.468406,23.101879,黄埔区石化路106号101
royaltea皇茶,奶茶果汁,37,113.468595,23.095987,万腾街8号116房
港记饮品点心简餐,奶茶果汁,5,113.415636,23.122314,黄村路29号207房
益禾堂(大沙地店),奶茶果汁,893,113.451223,23.105811,大沙地东路154号
阿曼达(黄埔店),奶茶果汁,15,113.443332,23.101535,大沙地西95号
YUE TEA约茶,奶茶果汁,1,113.411691,23.108047,石溪牛涌街二巷1号101房
悟茶（丰乐南路店）,奶茶果汁,8,113.455522,23.099963,广州市黄埔区丰乐南路485-489号之二
怪兽茶室(广州市黄埔区蟹山西路67号123铺),奶茶果汁,0,113.433534,23.100396,广州市黄埔区蟹山西路67号123铺
煎饼与茶,奶茶果汁,0,113.447399,23.102398,港湾路379号
喜客多|小吃饮品(萝岗万达店),奶茶果汁,1650,113.462382,23.168668,广州市黄埔区迁岗东路33号101
麓谷小镇(绿地中央店),奶茶果汁,748,113.430998,23.164738,科学大道绿地中央广场A3栋118号
黄氏牛奶甜品专家(绿地中央广场店),奶茶果汁,724,113.431562,23.164689,广州市黄埔区联和街科学大道52号A3栋106房
奶思茶饮,奶茶果汁,187,113.4313,23.1626,联和街科学大道绿地中央广场B2栋404房
拍档茶档(天河万科广场店),奶茶果汁,212,113.404467,23.16669,广州市天河区华观路天河万科广场A1栋4楼美食街L414
1点点(绿地中央广场店),奶茶果汁,262,113.4295716,23.16446531,广州市黄埔区联和街科学大道52号114房自编01铺
TATA鲜果茶(科学城店),奶茶果汁,42,113.452617,23.167969,高新技术产业开发区科学城科学大道193号优托邦A6栋负一层L23铺
1828王老吉（萝岗万达店）,奶茶果汁,69,113.465955,23.1695,联和街开创大道2709号169房
堂茶(大淋岗店),奶茶果汁,56,113.43531,23.140326,广州市天河区大淋岗大街4号
点点奶茶(玉树店),奶茶果汁,41,113.434374,23.15819,广州市黄埔区敬业一街1号
讲真餐饮店(萝岗万达店),奶茶果汁,336,113.466194,23.167744,联和街科丰路83号E229房（金街2楼即川代寿司二楼老港记甜品）
叁点叁拾,奶茶果汁,15,113.4313,23.1626,科学大道122-124号213房（绿地中央广场B2栋213）
四云奶盖贡茶(万达广场店),奶茶果汁,24,113.465833,23.170314,广州市萝岗区开创大道2709号（自编D4栋）171房
简饮简食下午茶(新泰街店),奶茶果汁,115,113.415424,23.161617,小新塘新泰小区A栋A02铺
HEERETEA|喜・鲜萃茶(萝岗万达店),奶茶果汁,884,113.466258,23.167464,开创大道2709号139房
贡茶(水果茶科学城店),奶茶果汁,212,113.430771,23.162529,科学大道118/120号绿地中央广场B1栋202室
一芳台湾水果茶(萝岗万达店),奶茶果汁,58,113.466275,23.166389,科丰路83号萝岗万达E120铺
悟茶(东方汇广场店),奶茶果汁,21,113.445144,23.185923,联和街道开创大道3327号东方汇广场首层142A铺
哥本达思.泡芙饮品(东方汇店),奶茶果汁,43,113.445488,23.1859,黄埔区联和街道开创大道3327号A座部位1006
御可贡茶(星选高德汇广场店),奶茶果汁,656,113.4523303,23.16865021,广东省广州市黄埔区科学大道193号
鹿角巷The Alley(萝岗万达店),奶茶果汁,29,113.46614,23.16986,开创大道2709号265房(万达广场6号门对面香雪商业街王老吉楼上D269号铺)
royaltea皇茶,奶茶果汁,692,113.425107,23.199823,广州市黄埔区天鹿南路233号A05
王子拉茶(东方汇店),奶茶果汁,69,113.445409,23.186105,开创大道3327号
街尚咖啡奶茶小吃,奶茶果汁,26,113.42212,23.201179,联和街联和路57号103房(自主申报)
甜不甜,奶茶果汁,27,113.452885,23.17927,广州市黄埔区科翔路128号金峰城113号铺甜不甜奶茶店
皇茶饮品虞美人烘焙工坊,奶茶果汁,1,113.427388,23.183945,联和街悦然大街2号C112房居家乐幸福街市110号08号铺
萌茶,奶茶果汁,1,113.465695,23.167521,联和街迁岗村迁岗东街95号
得闲饮茶(广青店),奶茶果汁,0,113.427057,23.369011,广州市白云区钟落潭镇障岗村广东青年职业技术学院白云校区
茶哆,奶茶果汁,396,113.46484,22.884536,东涌镇市南公路东涌段113号104
哎特饮吧,奶茶果汁,205,113.457946,22.883466,东丽园祥福路1号楼5号
鲜动力X.POWER,奶茶果汁,59,113.460741,22.883738,东涌镇培贤东路18号首层之十八
谷美陶休闲站,奶茶果汁,60,113.462016,22.883191,东涌镇东涌街14号101房屋
一家茶饮,奶茶果汁,368,113.488442,22.967274,番禺区石楼镇莲花别墅商铺黄山路50号
热麦喜(亚运城店),奶茶果汁,58,113.476748,22.941905,石楼镇康体路43号4楼
8090鲜萃茶(石地铁站店),奶茶果汁,65,113.46537,22.957569,广州市番禺区石镇市莲路石地铁站自编1号
1314茶,奶茶果汁,47,113.48241,22.944642,石楼镇兴亚三路32号-46号（双号）B区、C区163号
茶百味,奶茶果汁,43,113.469107,22.960238,广东省广州市番禺区石基镇南荔园直街
大口九,奶茶果汁,50,113.47017,22.959383,广东省广州市番禺区石基镇南荔园直街41号
卓拉米・舒芙蕾,奶茶果汁,63,113.469064,22.959497,石基镇市莲路南浦南荔园二街卓拉米梳芙厘店
喜司茶饮・炸串・海苔饭卷(石楼店),奶茶果汁,56,113.485718,22.97251,广州市番禺区石楼镇人民路36号
圣歌绿岛,奶茶果汁,25,113.485587,22.972097,石楼镇人民路53
满意答案占卜屋,奶茶果汁,14,113.485036,22.970693,番禺区石楼镇沙浦路12-14号首层
全民果汁(亚运城店),奶茶果汁,2,113.476566,22.9415,广州市番禺区石楼镇康体路43号L303
森尼咖啡馆,奶茶果汁,38,113.48451,22.965254,广东省广州市番禺区石楼镇北环西路6号
探客(亚运城广场店),奶茶果汁,2,113.476748,22.941905,石楼镇康体路43号214
茶萃吧奶茶・咖啡・小吃,奶茶果汁,0,113.484928,22.97032,石楼镇沙浦路30号
遇见奶茶,奶茶果汁,10,113.492434,22.971075,沙浦东路七街一巷8号
皇茶（石钦荆,奶茶果汁,1,113.48201,22.974289,石擎市路段306
大口九茶饮,奶茶果汁,2,113.485549,22.970264,广州市番禺区石楼镇沙浦东路79号
大口九茶饮(石楼店),奶茶果汁,156,113.485445,22.970067,石楼镇沙浦路5号之一
茶知味,奶茶果汁,234,113.486244,23.037641,化龙镇复d村复d路50号101
鲜茶时间(化龙店),奶茶果汁,51,113.4553261,23.04189476,化龙镇东南村宝堂路20号103
1点点(文冲石化路店),奶茶果汁,1149,113.468943,23.10314,广东省广州市黄埔区石化路128号105铺
HiTEA茶室,奶茶果汁,175,113.452984,23.106199,大沙东路208-254号广州市黄埔区丰乐购物城首城A230号
CoCo都可(大沙东店),奶茶果汁,555,113.452381,23.106462,广东省广州市黄埔区大沙地东路184号铺
奶丝nice.奶茶小吃,奶茶果汁,31,113.484595,23.090035,黄埔东路1625号101房
贡茶GONGCHA(红山店),奶茶果汁,0,113.478796,23.095517,红山村耀华西街20号
亲爱的蜂蜜茶,奶茶果汁,283,113.45096,23.106005,大沙东路（大沙街）135号
1点点（萝岗万达金街店）,奶茶果汁,1844,113.466634,23.166594,广东省广州市黄埔区联和街道科丰路81号万达广场(萝岗店)
茶物语,奶茶果汁,648,113.489192,23.167197,萝岗街萝岗社区新阳东路81号负一层104房
咕噜咕噜,奶茶果汁,133,113.465778,23.169135,广州市萝岗区科丰路83号164号
果然鲜,奶茶果汁,5,113.461161,23.148582,加庄新东街5巷2号101房
RPG手游吧-小吃饮品,奶茶果汁,0,113.466123,23.168573,广州市黄埔区联和街科丰路83号247房
冰雪相遇舒芙蕾,奶茶果汁,30,113.50056,23.173801,广州市黄埔区锐丰二街4号（自编5#栋）137房
古の茶（开创大道店）,奶茶果汁,11,113.466026,23.168231,广州市黄埔区联和街开创大道2709号131房
0点2度,奶茶果汁,48,113.482783,23.189697,水西路187号127商铺（A6栋127号商铺）101房
迷客夏Milkshop(萝岗万达店),奶茶果汁,95,113.466258,23.167464,联和街道科丰路83号-D137万达广场(黄埔店)
iF Cha一夫茶  一心制一茶(萝岗万达店),奶茶果汁,2,113.465758,23.169272,广州市黄埔区开创大道2709号D109号
KISSTEA.鲜意,奶茶果汁,61,113.491034,23.45177,太平镇广从南路水南新村12号
苏格漫茶,奶茶果汁,4,113.481441,23.431536,太平镇新平路149号
有块田(南沙万达店),奶茶果汁,47,113.532441,22.794928,广州市南沙区双山大道3号
MOOTEA末茶(金洲店),奶茶果汁,1,113.537322,22.792701,双山大道75号
茶语(麒麟店),奶茶果汁,82,113.495921,22.811696,黄阁镇麒麟新城新阁一巷9，11，13号首层商铺
茶8°TEA(黄阁店),奶茶果汁,208,113.507097,22.826986,黄阁镇麒龙中路69号
兰即之茶,奶茶果汁,46,113.506388,22.819719,"黄阁镇麒麟二街2号02,23房号"
royaltea真悦皇茶,奶茶果汁,36,113.507527,22.823627,黄梅路63号101房
初芯,奶茶果汁,16,113.505394,22.827196,黄阁镇麒龙中路52号
果味斯,奶茶果汁,0,113.506682,22.822729,黄阁镇黄梅路118号1号
谷美陶创意饮品,奶茶果汁,0,113.506394,22.819781,黄阁镇清河路康政街十巷2号103房
绿岛,奶茶果汁,100,113.484425,22.969663,石楼镇市莲路223号一层
奶茶很忙(夏园店),奶茶果汁,1065,113.519383,23.08297,广州市黄埔区穗东街道黄埔东路2888号之十
1314奶茶,奶茶果汁,80,113.515641,23.080402,广州市黄埔区夏园路31号
世代皇茶(华润万家夏园店),奶茶果汁,871,113.516265,23.082031,广州市黄埔区黄埔东路2706-2712号之2712夏园华润万家旁
royaltea皇茶(领好广场店),奶茶果汁,165,113.525611,23.085927,黄埔东路2845号之4
柠檬树(领好广场店),奶茶果汁,69,113.525235,23.0851,广州市黄埔区黄埔东路2889号领好广场负一层1191号铺
御品贡茶.美食(生活区店),奶茶果汁,76,113.525822,23.085822,广东省广州市黄埔区黄埔东路2845号54铺
u壹cc,奶茶果汁,104,113.525993,23.086216,黄埔东路2845号沙步综合市场自编南广场区东10号铺
悟茶(夏园店),奶茶果汁,28,113.51596,23.082745,广东省广州市黄埔区穗东街道黄埔东路2779号
世代皇茶(沙涌临街店),奶茶果汁,38,113.525715,23.084543,南岗沙涌大街三十六巷8号101
普盈士王子拉茶（印象黄埔店）,奶茶果汁,66,113.5448652,23.11357184,荔联街宏明路183-225号D117-118房
普盈士王子拉茶,奶茶果汁,50,113.528296,23.086225,广州市黄埔区黄埔东路2937号119铺
悟茶(领好广场店),奶茶果汁,39,113.524718,23.085161,广州市黄埔区黄埔东路2889号领好广场负一楼8101铺
悦茶,奶茶果汁,29,113.543459,23.09465,广州市黄埔区南岗中街旧市巷13号
老虎黑糖,奶茶果汁,13,113.526442,23.085238,黄埔东路2843号之四102
优雅乐奶茶,奶茶果汁,36,113.543796,23.094299,南岗中街旧市巷2号A103房
茶小熊,奶茶果汁,0,113.526607,23.085584,沙步商业街三巷2号之七102房
小堆爸爸鲜茶.美食(夏园店),奶茶果汁,655,113.519039,23.0826,黄埔东路2888号之六
贡茶(青年路店),奶茶果汁,46,113.531066,23.063491,广州市经济技术开发区青年路256号
益茶・奶茶・果汁・美食・芋圆(汇赢广场店),奶茶果汁,0,113.546945,23.109653,云埔街宏光路125号
21 Angeland Tea奶茶,奶茶果汁,38,113.525993,23.086216,广州市黄埔区黄埔东路2845号沙步综合市场自编南广场区西1号
清茶达人,奶茶果汁,1,113.499481,23.083565,穗东街庙头文成街15号一楼101
深仔の小店(沙涌店),奶茶果汁,241,113.528669,23.082241,沙涌瓜市大街4巷5号
The way 半鹿,奶茶果汁,0,113.543376,23.09457,南岗街道南岗路23号二楼
化州甜品.生滚粥.炒粉.饺子(东区店),奶茶果汁,233,113.545826,23.110056,荔联街沧联社区榕村西街一巷2号104铺
益禾堂(时代城店),奶茶果汁,2399,113.544375,23.111278,荔联街沧联社区东联街52号101铺
世代皇茶(东联店),奶茶果汁,201,113.544977,23.110465,广州市黄埔区荔联街沧联社区东联路71B栋商铺之一B1
ALSGONGCHA阿里山贡茶(时代城店),奶茶果汁,50,113.543569,23.111482,广州市黄埔区荔联街宏明路263号时代城W-17
世茶奶茶小吃,奶茶果汁,209,113.550692,23.115981,宏明路51号
大口九茶饮（岗贝店）,奶茶果汁,344,113.535469,23.140226,广州市黄埔区东区街岗贝南街七巷1照
六月雪甜品糖水店,奶茶果汁,23,113.545465,23.108375,广州市黄埔区东区春晖四街55号之一
KH手游吧.休闲.饮品.简餐(东区店),奶茶果汁,87,113.544585,23.113222,荔联街沧联社区宏明路26号101铺
鲁香三香味王黄焖鸡米饭(夏埔店),奶茶果汁,34,113.566856,23.102026,广州市增城区新塘镇南埔村夏埔东区南2号
小堆爸爸鲜茶.美食(汇赢广场店),奶茶果汁,302,113.547093,23.109707,宏光路汇赢广场北门 十八涌对面首层
大口九美食茶饮(南岗店),奶茶果汁,17,113.543937,23.094669,广东省广州市黄埔区广州市黄埔区南岗路15号02
COCO都可,奶茶果汁,132,113.545903,23.109267,东区宏光路89号创荣美食荟二楼电梯旁
不期而遇,奶茶果汁,838,113.500967,23.151581,广州市黄埔区东区火村路3号大利家超市门口广场铺位自编105号
街角工厂奶茶店,奶茶果汁,201,113.51902,23.163891,东区街刘村社区萝格路61号101铺
化州糖水店,奶茶果汁,55,113.500659,23.150785,罗岗区火村岗荔街9号
新作の茶SunTea(香雪店),奶茶果汁,184,113.502414,23.173106,广州市黄埔区萝岗街锐丰大街2号9栋121房
1点点（锐丰广场店）,奶茶果汁,1435,113.501968,23.173429,锐丰广场9栋第一层117号
一芳台湾水果茶(奥园广场店),奶茶果汁,214,113.497669,23.173644,广州市黄埔区萝岗街新福港社区开创大道中1934号奥园广场S7栋一层L106房
世代皇茶(奥园广场店),奶茶果汁,84,113.497299,23.173846,萝岗街新福港社区开创大道1934号奥园广场S7栋永辉超市一楼A9747001-1号铺
优之乐茶屋,奶茶果汁,68,113.510873,23.158348,广州市黄埔区开源大道211号107房之二
SNOWTEA漫雪的茶,奶茶果汁,51,113.502605,23.173634,广州市黄埔区萝岗街锐丰大街2号9栋105铺
LuckyTea小确茶(锐丰中心店),奶茶果汁,8,113.501137,23.173616,锐丰中心5栋106
大口九奶茶面包店(赵溪店),奶茶果汁,57,113.508872,23.142883,赵溪村大利家旁
大喜福猪扒包(荔红店),奶茶果汁,62,113.50987,23.175754,广州市黄埔区萝岗街荔红路182号104房
皇茶(瑞和路店),奶茶果汁,1,113.501158,23.153936,广东省广州市黄埔区东区火村牛头田街1号
Taning挞柠・手打柠檬茶(香雪店),奶茶果汁,498,113.503102,23.174631,萝岗街荔红路41号101房
街角工厂奶茶店(中海誉城店),奶茶果汁,239,113.530168,23.158474,广州市黄埔区漫林街111号
CoCo都可（萝岗步行街店）,奶茶果汁,380,113.5083975,23.17435002,广州市黄埔区萝岗墟公路街115号自编112号房
大酷九奶茶・汉堡(开发区店),奶茶果汁,202,113.493007,23.44095,广州市从化区经济开发区高技术产业园回归路26号
三品三(神岗店),奶茶果汁,168,113.533203,23.488894,太平镇广从北路147号神岗市场
桃妍里茶饮馆(南沙店),奶茶果汁,104,113.539015,22.695246,珠江街珠江西一路41号
密恋冰城,奶茶果汁,36,113.54905,22.70401,珠江街珠江东二路35号101铺
浮tea,奶茶果汁,29,113.533982,22.727358,珠江街珠江南思三街2号104房
DOOTEA度茶,奶茶果汁,168,113.54833,22.80096,亿裕街3号103房
茶丸家,奶茶果汁,49,113.54672,22.793868,广州市南沙区金隆路41号
尊茶RESPECT TEA,奶茶果汁,258,113.53979,22.791018,滨海御城7栋105房
1点点(今洲新天地店),奶茶果汁,518,113.545266,22.801198,广州市南沙区金涛东街8号101房金洲新天地第一层商铺1F005
NICEPUB,奶茶果汁,168,113.538537,22.797231,南沙街城品汇街68-27
贡茶,奶茶果汁,194,113.54764,22.801412,广东省广州市南沙区南沙街道惠康街97号裕兴花园
谷美陶创意饮品(金州店),奶茶果汁,198,113.548264,22.801533,广州市南沙区南沙街裕兴花园8号楼裕和街12号铺
Hey Cafe,奶茶果汁,148,113.532721,22.793246,广州市南沙区海熙大街27号2-11栋商业C栋101房
鹿角巷,奶茶果汁,142,113.550181,22.793998,信宜街38号
快乐番薯(广州南沙万达店),奶茶果汁,221,113.53231,22.794207,广州市南沙区南沙街双山大道3号负一层永辉超市
谷美陶创意饮品(板头店),奶茶果汁,80,113.549492,22.791522,广州市南沙区板头村金岭北路292/294号101房
大口九(南沙店),奶茶果汁,72,113.547277,22.803002,广东省广州市南沙区南沙街道惠康街新地广场
橘子(南沙万达店）,奶茶果汁,93,113.532817,22.794742,双山大道3楼359号自编0084
普盈士王子拉茶(紫茗花园店),奶茶果汁,53,113.551809,22.801874,广州市南沙区富佳北街79号铺（临时经营场所）
卡乐巴巴(南沙万达店),奶茶果汁,121,113.532533,22.79461,双山大道3号187房自编3032房
royaltea皇茶(金洲地铁口风信子店),奶茶果汁,49,113.538842,22.791897,南沙区广丰路1号丰庭商务中心1-2层（部位：115铺）
8090鲜萃茶(金洲店),奶茶果汁,39,113.547864,22.801449,进港大道裕兴花园商业街南都淘金城一楼底层8090鲜萃茶
吉茶屋(滨海御城店),奶茶果汁,26,113.539155,22.787944,广东省广州市南沙区南沙街道丰泽东路越秀・滨海御城
蓝茶BLUETEA,奶茶果汁,37,113.55326,22.802003,广州市南沙区富佳北街67号
鹿野茶事(金洲店),奶茶果汁,42,113.553071,22.800536,进港大道129-1号后排2号
御质贡茶(南沙万达广场店)南沙万达店,奶茶果汁,39,113.532691,22.794342,广州市南沙区南沙街双山大道3号152房
LPXTEA皇茶(南沙万达店),奶茶果汁,48,113.532644,22.794629,广州市南沙区南沙街双山大道3号004房
御可贡茶金洲店,奶茶果汁,19,113.537659,22.792774,广州市南沙区南沙街双山大道89号创鸿雅筑自编5栋108房
Roastea皇茶（万达店）,奶茶果汁,20,113.532644,22.794629,广州市南沙区双山大道3号159房
他她偶遇(中大城店),奶茶果汁,41,113.539173,22.792726,创景街7号111C房
兆恒乐茶饮,奶茶果汁,75,113.544821,22.794062,环盛街1号保利思泰广场自编9-1#号楼（1栋）111房之一
贡茶・追茗,奶茶果汁,0,113.533149,22.794784,环市大道中25号123房
贡茶・茶贵人(板头店),奶茶果汁,0,113.55018,22.790874,板头村五街12号101
Sunday,奶茶果汁,1,113.553665,22.800919,广东省广州市南沙区南沙街道富佳南街105号富佳花园
茶寄,奶茶果汁,0,113.548467,22.801218,步行街15号
奶吧,奶茶果汁,0,113.546267,22.787916,集贤大街凤岗二巷55号101房
ROYAl TEA,奶茶果汁,0,113.548739,22.790258,金岭北路368号、370号一楼
宫廷贡茶（风信子店）,奶茶果汁,54,113.535628,22.792637,广州市南沙区环市大道中海达大街3、4、5、6号1楼至2楼之一1-2楼B133A
Royaltea皇茶,奶茶果汁,30,113.378881,23.076696,仑头车站东1号之三
汉初墨鱼君,奶茶果汁,65,113.571049,23.003836,东莞市麻涌镇漳澎村一坊环村东路13号好时光幼儿园直入300米
最后防线(星河广场店),奶茶果汁,72,113.575523,23.051815,麻涌镇麻三建设路43号星河城市广场1栋132室
素茶(椰林店),奶茶果汁,26,113.578715,23.039154,麻涌镇大步村椰林科技创意园A区一楼110室写字楼
麽啡休闲茶饮(麻涌店),奶茶果汁,1934,113.576094,23.051583,东莞市麻涌镇麻三村建设路52号
快乐番薯(麻涌星河城店),奶茶果汁,212,113.575487,23.051591,东莞市麻涌镇麻三村建设路69号星河城市广场
1点点(东联路店）,奶茶果汁,1189,113.544007,23.112563,黄埔区开发区东区东联路自编12号
余生叹茶.茶饮.小吃.简餐,奶茶果汁,361,113.553905,23.118431,云埔街沧联社区沧头建益路5号102号102铺
悠茶,奶茶果汁,52,113.552734,23.111967,广州市增城区新塘镇新墩村新市场东街17号之一
新作の茶SunTea(印象黄埔店),奶茶果汁,218,113.545056,23.113617,广州市黄埔区荔联街沧联社区宏明路183-225号101-1
御质贡茶(三中店),奶茶果汁,405,113.583818,23.112238,广州市增城区新塘镇新塘第三中学对面
世代皇茶(南岗店),奶茶果汁,95,113.541982,23.09485,南岗街22号南岗新城首层A区A13-3号
茶可优,奶茶果汁,20,113.580126,23.107937,新塘镇西洲村西洲大道100号-2
一の茶,奶茶果汁,200,113.595148,23.121774,新塘镇广深大道西97号之103号
茶汁喂,奶茶果汁,21,113.566852,23.103359,新塘镇南埔村夏埔开发区七街2号
奈鹿茶饮,奶茶果汁,427,113.606239,23.120188,新塘镇新业路29号
黑露白霜,奶茶果汁,13,113.543836,23.111318,东区宏明路263号时代城3楼
佑伊饮,奶茶果汁,45,113.61036,23.119385,新塘镇卫山路43号
50度纯氧贡茶,奶茶果汁,1,113.614506,23.121886,广州市增城区新塘镇广深大道中106号之一
甜不甜(东区店),奶茶果汁,0,113.54318,23.109954,云埔街沧联社区开创大道230号首层K2号
一夫茶(现代城店),奶茶果汁,53,113.604337,23.12665,广州市增城区新塘镇港口大道363号首层150号商铺一间
鲸饮屋,奶茶果汁,37,113.604769,23.127088,港口大道北363号现代城市花园首层160号
麻三斤(凤凰城店),奶茶果汁,50,113.57476,23.125852,永宁街凤凰城广场步行南街2号之三
LOOK・TEA,奶茶果汁,0,113.604398,23.124225,新塘镇港口大道北337号之西铺5号
IM茶（中心体育馆店）,奶茶果汁,12,113.600854,23.128195,新塘镇港口大道北新塘中心体育馆第一层C04号
艾尚果茶(东区店),奶茶果汁,0,113.54318,23.109954,云埔街沧联社区开创大道230号首层1199铺
美集社,奶茶果汁,2,113.605748,23.12768,新塘镇新新大道南81号C
茶有喜奶茶店(黄埔店),奶茶果汁,236,113.565705,23.191323,永和街永顺大道中1号五栋103
萌乐奶茶,奶茶果汁,82,113.565079,23.190903,永和街新庄小东路1号之一101
C哩C哩,奶茶果汁,64,113.591536,23.177743,永宁街永联路41号6-7号铺
第2站奶茶店(礼加诚店),奶茶果汁,40,113.569028,23.186258,永和街永岗华丽苑八巷15号
甜心安妮,奶茶果汁,14,113.569286,23.185973,广东省广州市黄埔区永和街横丽六街13号
第2站奶茶店,奶茶果汁,58,113.564716,23.190469,永和街新庄小东路旧办公楼3号铺
得闲饮茶,奶茶果汁,0,113.555497,23.20679,广州市黄埔区永和街布岭一街11号
麦克顿时尚茶饮,奶茶果汁,29,113.593189,23.17759,广东省广州市增城区永宁街道永平街4号
榴芒冰果茶,奶茶果汁,0,113.566101,23.19126,永和街新庄新元街110号
简单点,奶茶果汁,9,113.584988,23.278028,广州市黄埔区九龙镇镇龙宝龙路43号101
四茶,奶茶果汁,98,113.553686,23.324931,广州市黄埔区九龙镇中新知识城合景天峻C9栋
乐芙鲜茶,奶茶果汁,29,113.58854,23.530585,江埔街海i东路84号101铺
耐思阳光原叶,奶茶果汁,45,113.587399,23.5503214,西宁横街一巷1-11号
左岸有约,奶茶果汁,0,113.588002,23.544375,街口街府前路70号
惯茶,奶茶果汁,67,113.59145,23.531357,江埔街从化大道南欣荣宏商业街112号之3
茶源轩(街口总店),奶茶果汁,2,113.589486,23.549323,从化朝阳街34号
茶千岁(朝阳路店),奶茶果汁,0,113.589564,23.548888,从化区街口街西宁中路朝阳街12号
澜记老香港茶点,奶茶果汁,0,113.59145,23.531357,江埔街从化大道南欣荣宏商业街69号102铺
挞柠taning(欣荣宏店),奶茶果汁,0,113.590407,23.531576,江埔街从城大道南欣荣宏商业街78号
拾光里・奶茶・甜品・麻辣烫,奶茶果汁,835,113.57885,22.74679,南沙街珠江中路46号101房
三c三,奶茶果汁,269,113.579561,22.747369,广州市南沙区珠江中路85号101铺
大口九(旧镇店),奶茶果汁,70,113.577256,22.746283,广州市南沙区南沙街珠江中路22号1-1房
大卡司(南沙珠江店),奶茶果汁,121,113.577409,22.74633,广州市南沙区南沙街珠江中路20号
来坐料理餐厅,奶茶果汁,30,113.578392,22.740446,广州市南沙区南沙街海景路101号
鑫潮食堂,奶茶果汁,50,113.606139,22.759374,星萃一街7号103房
珍之堡・咖啡(旧镇店),奶茶果汁,0,113.575276,22.745306,南沙街珠江西路1号101铺
龙茶・咖啡・烤奶(塘坑店),奶茶果汁,0,113.562501,22.754334,南沙街环市大道南168号后面101铺
Sweet・甜品小吃茶饮,奶茶果汁,49,113.577583,22.801512,天瑞街1-9号-1791房
果乐园奶茶炸鸡汉堡(沙田店),奶茶果汁,87,113.631117,22.846293,沙田镇稔洲村环保城新万悦商业广场一楼铺位
Zan私厨,奶茶果汁,0,113.63539,22.887486,东莞市沙田镇西太隆工业大街附近
niuniu c&m(洪梅店),奶茶果汁,1435,113.61254,22.989906,广东省东莞市洪梅镇洪梅桥东路52号1栋133室
植上,奶茶果汁,352,113.578246,23.057722,广东省东莞市麻涌镇麻三教育路5号121室
花流茶,奶茶果汁,107,113.579231,23.057532,麻涌镇古梅路中大创客坊D栋7-8
夏午茶岛(21街景车店),奶茶果汁,116,113.580281,23.057508,东莞市麻涌镇沿江西路中大新华学院南门粉红色雪糕车
Miss,奶茶果汁,129,113.583344,23.059355,广东省东莞市麻涌镇麻涌沿江西路7号102室
满芬MANTEA（创客坊店）,奶茶果汁,183,113.57476,23.058275,东莞市麻涌镇麻三村古梅北路华阳湖创客坊9栋8号商铺
满茶MANCHA(创客坊店),奶茶果汁,740,113.576819,23.057835,麻涌镇麻三村教育路3号104室
beartea熊茶,奶茶果汁,102,113.583145,23.059141,广东省东莞市麻涌镇麻三村麻涌沿江西路13号101室
LIANGTEA靓茶,奶茶果汁,138,113.576094,23.051583,麻三村建设路50号靠北边
新作の茶SunTea(创客坊店),奶茶果汁,139,113.575055,23.058608,东莞市麻涌镇麻三村古梅路北路华阳湖创客坊七栋一层713、714A
港甜记(创客坊店),奶茶果汁,42,113.574536,23.058079,麻涌镇麻三村古梅北路华阳湖创客坊9栋一层909
四季柠檬,奶茶果汁,33,113.577404,23.054017,麻涌镇麻三村新世纪江畔湾19号B铺
KOOMATEA,奶茶果汁,28,113.575883,23.058353,麻涌镇麻三教育路1号103室
7茶,奶茶果汁,45,113.577145,23.058003,广东省东莞市麻涌镇麻三教育路5号203室
甜啦啦(中大创客坊店),奶茶果汁,6,113.57843,23.057693,麻涌镇中大创客坊
七港九,奶茶果汁,90,113.575903,23.051072,麻涌镇麻三村建设路48号之一
101奶茶,奶茶果汁,107,113.582606,23.053288,麻涌镇东太村麻涌大道南峰广场105号铺
维C私房下午茶,奶茶果汁,39,113.580893,23.046353,麻涌镇大步村大步市场一街15号
95冰茶,奶茶果汁,2,113.575951,23.050952,麻涌镇麻三村综合市场第1层第16号商铺
奉茶（麻涌二店）,奶茶果汁,15,113.579964,23.0438,广东省东莞市麻涌镇麻涌大道正德商厦
麻朵姑娘,奶茶果汁,2,113.574378,23.049213,麻涌镇古梅路A15号
书亦烧仙草（东莞中山大学店）,奶茶果汁,826,113.578881,23.057905,麻涌镇麻三村古梅北路中大创客坊D栋1-3号
CoCo都可(麻涌嘉荣店),奶茶果汁,519,113.581997,23.053886,广东省东莞市麻涌镇南峰时代广场嘉荣超市一楼F08号铺(肯德基旁边)(coco都可)
香味珍珠奶茶,奶茶果汁,0,113.592396,23.061352,麻涌镇新基村新基大道新基市场
御茶贡茶（新塘店）,奶茶果汁,4363,113.61315,23.120701,新塘镇卫山东四路10号
Hi・茶先生,奶茶果汁,771,113.605151,23.119163,新塘镇群星村新庄路4号
米芝莲(凤凰城店),奶茶果汁,236,113.57668,23.125364,广州市增城区永宁街凤凰城凤妍苑2街1号101号自编T0035永旺超市内72街旁
1点点(新塘大润发店),奶茶果汁,822,113.602719,23.126969,广东省广州市新塘港口大道北路金海岸城市广场西大堂外广场W06铺
鲜茶王子(新庄店),奶茶果汁,76,113.605525,23.123755,广州市增城区新塘镇群星村下东横岭333号东B-1
爷茶(解放北路店),奶茶果汁,270,113.614806,23.11614,广州市增城区新塘镇解放北路113号
水帘洞中西餐厅,奶茶果汁,234,113.609707,23.117277,广州市增城新塘镇金福星广场西侧A区1号
町茶道(新塘解放北店),奶茶果汁,625,113.6148,23.114671,新塘镇解放北路105号
新作の茶SunTea(新塘大润发店),奶茶果汁,347,113.601752,23.127745,新塘镇金海岸城市广场与汇太广场之间
乌叶(新塘广场店),奶茶果汁,58,113.614,23.11705,新塘镇解放北路122号（新塘广场庙南美食城A01铺乌叶）
序茶,奶茶果汁,63,113.608654,23.11476,新塘镇群贤路130号
茶颜观色,奶茶果汁,42,113.596508,23.137561,永宁街汽车城东路206号商铺
好声音TEA・奶茶果汁・水果茶,奶茶果汁,39,113.613816,23.11691,新塘镇解放北路华润万家庙南美食城好声音tea 122号A22
王子拉茶（卫山路店）,奶茶果汁,67,113.609088,23.119482,卫山路96号
御柠阁音乐饮吧,奶茶果汁,36,113.610283,23.119403,广州市增城区新塘镇卫山路51号一至三层
香港仔港式靓饮速递(建设路店),奶茶果汁,39,113.619246,23.114166,新塘镇建设路200号
悟茶,奶茶果汁,37,113.599911,23.137719,广东省广州市增城区永宁街道汽车城大道100号
小加奶茶,奶茶果汁,6,113.614513,23.113721,新塘镇广州市增城区新塘镇解放北路44-1
加油站,奶茶果汁,59,113.633009,23.123818,广州市增城区新塘镇牛仔城横路152号
世代皇茶,奶茶果汁,45,113.631382,23.121166,广州市增城区新塘镇牛仔路215号之第A1-1002A号
一芳台湾水果茶（解放北路店）,奶茶果汁,76,113.61465,23.11539,广州市增城区新塘镇解放北路113号之六
奈茶,奶茶果汁,34,113.61372,23.1167,新塘镇解放北路122号A19
DKJ咖啡茶饮小吃,奶茶果汁,26,113.64722,23.123268,广州市增城区新塘镇久裕村久裕市场横街1号
百岁堂中草药茶疗对症配茶,奶茶果汁,3,113.607006,23.119183,新塘镇新星路26号
麦甜艾斯・奶茶果汁.柠檬茶,奶茶果汁,12,113.613502,23.116977,新塘镇解放北路122号A27
御缘鲜茶,奶茶果汁,1,113.615328,23.11742,广东省广州市增城区新塘镇公园路13号
指间奶茶,奶茶果汁,13,113.61073,23.107958,广东省广州市增城区新塘镇宏达北路15号
冰语星愿,奶茶果汁,2,113.614776,23.11519,广州市增城区新塘镇解放北路113号之八
时鹿,奶茶果汁,0,113.6007,23.116274,新塘镇水电二局职工商住楼E2栋一楼02号
泊泊茶,奶茶果汁,40,113.614877,23.114198,广州市增城区新塘镇解放北路91号泊泊茶华莱士对面
浅檬茶(新塘大道中店),奶茶果汁,55,113.609263,23.1165,新塘大道中143号
FIT马,奶茶果汁,55,113.613813,23.11624,广州市增城区新塘镇解放北路新达街1号
旺阁奶茶皇(新塘广场店),奶茶果汁,8,113.614973,23.118032,广东省广州市增城区公园二横路
果然汁己(发达岭店),奶茶果汁,13,113.624133,23.128741,新塘镇汇美居委会发达岭小区拓展路24号9、10商铺
星奇异(新塘店),奶茶果汁,4,113.609087,23.119523,广州市增城区新塘镇卫山路98号首层第二层铺位
光合制茶(大润发店),奶茶果汁,23,113.602719,23.126969,新塘镇港口大道332号金海岸城市广场三层81号
鲸饮屋,奶茶果汁,78,113.613693,23.116789,新塘镇解放北路122号庙南美食城内鲸饮屋店A11
金皇冠蛋糕,奶茶果汁,3,113.609916,23.119584,广州市增城区新塘镇卫山路84号
找你妹休闲吧,奶茶果汁,8,113.608919,23.113502,新塘镇群星村刘舍街一巷16号首层
糖朝工坊,奶茶果汁,28,113.609993,23.127835,广州市增城区新塘镇亚太新城富丽园第2幢汇太中路首层3号商铺
本宫的茶(新塘店),奶茶果汁,37,113.6015,23.127395,新塘镇港口大道北新塘中学体育馆第一层1F-B23号
老Sの茶,奶茶果汁,26,113.612151,23.119492,广州市增城区新塘镇群星村卫山路41号之4
汴京茶寮,奶茶果汁,0,113.608959,23.120401,新塘镇卫山路91号
旺阁奶茶皇(章陂店),奶茶果汁,47,113.614929,23.15804,广州市增城区永宁街章陂村可园山二巷1号
四季柠茶(奶茶汉堡店),奶茶果汁,96,113.591407,23.178901,永宁街永兴北街5号
More Cup of 哆柠,奶茶果汁,11,113.594101,23.135401,永宁街凤凰北横路222号101房
一の茶,奶茶果汁,0,113.605709,23.185641,永宁街新惠路24号商业物业管理层第101、102商铺自编号3号
vcows维卡站,奶茶果汁,1,113.604436,23.530137,江埔街明珠路51号
茶丸家（东华南街店）,奶茶果汁,0,113.605992,23.529878,江浦街聚源路东华南街6号101铺
益禾堂(新世纪店),奶茶果汁,1649,113.588827,23.547494,街口街东成路68号D0006铺
茗一餐室,奶茶果汁,125,113.595034,23.552483,广州市从化区城郊街向阳路20号
作茶(街口总店),奶茶果汁,333,113.588466,23.542317,街口街建云东三巷8幢首层103号
益禾堂(欣荣宏店),奶茶果汁,333,113.590951,23.53136,广州市从化区江浦街从化大道南欣荣宏商业街112号
益禾堂(荔香村店),奶茶果汁,128,113.587944,23.548521,街口街新城东路荔香村1栋103铺
1点点(欣荣时尚店),奶茶果汁,900,113.589612,23.531747,广东省广州市从化区江埔海i东路8号
蒲蒲茶,奶茶果汁,175,113.590726,23.531419,江埔街从化大道南欣荣宏商业街96号
royaltea皇茶,奶茶果汁,83,113.587211,23.544099,街口街中田北路三巷九号
LV柠檬茶哈尼炸串小吃(海i分店),奶茶果汁,147,113.58726,23.531313,海i村129号即从化六中对面技校宿舍楼后巷，阳光公寓一楼
黑糖先生(广百店),奶茶果汁,41,113.587832,23.54786,广百百货KFC旁边
茶咖包(蓝田路店),奶茶果汁,93,113.586334,23.545643,街口街蓝田东路96、96之一、96之二
KISSTEA鲜意,奶茶果汁,101,113.588962,23.531217,江埔街海i东路50、52号
永心奉茶,奶茶果汁,48,113.59044,23.531644,江埔街从化大道南欣荣宏商业街64号101铺
11miles,奶茶果汁,63,113.588404,23.541531,街口街凤仪东路80号
朋友圈水果捞,奶茶果汁,52,113.583989,23.54368,街口街中田西路8号
白日梦饮品店,奶茶果汁,37,113.582846,23.53516,街口街青云路385号
Q一族奶茶,奶茶果汁,46,113.584541,23.547792,从化街口街城内路32号
蜜雪冰城・冰淇淋与茶（街口店）,奶茶果汁,17,113.587788,23.550143,广州市从化区街口街西宁横街28号
一芳台湾水果茶(从化店),奶茶果汁,96,113.58938,23.53097,广州市从化区江埔街海i横街4号
乌门町奶茶店(欣荣宏店),奶茶果汁,26,113.588466,23.529972,江埔街海i东路147号
森社,奶茶果汁,51,113.590765,23.546345,街口街新城东路9号二、三、四层
鹿角巷(欣荣宏店),奶茶果汁,10,113.591096,23.530559,江埔街从化大道南欣荣宏商业街112号之4、之5
安格拉夏茶饮店,奶茶果汁,324,113.587586,23.543538,中田南路三巷三栋104铺
想不起来(新世纪店),奶茶果汁,69,113.587883,23.547711,街口街新城东路68号D0004铺
一起茶,奶茶果汁,4,113.585498,23.540271,广东省广州市从化区街口街广场路37号
零下酷乐,奶茶果汁,18,113.585648,23.551761,街口街西宁西路13号
LaLa Salad 夏饮食,奶茶果汁,237,113.586962,23.541806,街口街新城市场凤仪东路119号 顺昌隆茶楼对面
茶源轩,奶茶果汁,0,113.588893,23.530493,江埔街海i东路133号
黑糖先生(三中店),奶茶果汁,0,113.606441,23.543249,广州市从化区江埔街大江路27号101铺（临时经营场所使用有效期至2019年6月16日）
皇茶(品盛广场店),奶茶果汁,80,113.588701,23.546937,街口街新城东路四巷9幢二层自编024号
偶尔欢聚休闲小站,奶茶果汁,46,113.599113,23.545367,江埔街龙井新村三区9幢101、102号
益禾堂(海i村店),奶茶果汁,14,113.587233,23.531741,广州市从化区江埔街海i村104号101铺
茗茶,奶茶果汁,1,113.587565,23.53163,江埔街海i村130-1号401房
答案茶,奶茶果汁,0,113.586984,23.531622,江浦街道海i村150号129铺
逅座十二茶,奶茶果汁,0,113.587121,23.551714,街口街教育路2-9号（往四中方向）
DAKASI大卡司(品盛美食腾留饮品广场店),奶茶果汁,1,113.591317,23.545562,街口街新城东路四巷9幢二层自编019号
柠檬树,奶茶果汁,56,113.658826,22.827617,东莞市虎门镇镇口道路82号
宝润堂凉茶行,奶茶果汁,58,113.667364,22.829141,虎门镇虎门博头路104号113室(川味小厨的隔壁)
芒巢港式甜品,奶茶果汁,139,113.625731,22.845918,沙田镇大泥村满丰组环保西路11号
冰点酷饮,奶茶果汁,0,113.62056,22.829553,东莞市沙田镇轮渡路沙田段117号102室
歇歇脚饮吧,奶茶果汁,1,113.658408,22.829086,东莞市虎门镇镇口大路98号第3号铺
茶多多饮品店,奶茶果汁,72,113.620704,22.872213,广东省东莞市沙田镇大泥大兴南路25号
曲岸奶茶咖啡小吃(厚街白濠店),奶茶果汁,365,113.668671,22.872896,厚街镇白濠振兴路8号106室
xin茶.活力鲜茶,奶茶果汁,141,113.664263,22.87772,厚街镇下汴社区商业步行街A1号铺
知来饮奶茶店,奶茶果汁,103,113.665486,22.878498,厚街下汴五区二巷12号101室
茶萃吧,奶茶果汁,124,113.66785,22.872395,厚街镇白濠社区深溪路11号-7
茶萃吧(白沙店),奶茶果汁,111,113.664016,22.861808,白沙大路北与金园路交叉口旁
果味斯,奶茶果汁,59,113.666942,22.871971,东莞市厚街镇深溪路11号104室
爽洋洋奶茶汉堡,奶茶果汁,40,113.669048,22.872025,厚街镇白濠工业区振兴路
茶来运转,奶茶果汁,48,113.665442,22.871126,厚街镇白濠振华街10号105室
艾特咖啡,奶茶果汁,6,113.664843,22.876348,东莞市厚街镇下汴社区富民路北边一巷15号之二
快乐甜品,奶茶果汁,366,113.633804,22.846157,沙田镇丽海中路2号133室万国购物广场对面
乐茶道,奶茶果汁,19,113.618607,22.888834,沙田镇民田村官洲小组成田路
果茶屋呷鸭脚板,奶茶果汁,0,113.663898,22.862007,广东东莞市虎门镇白沙路北号107室
豆饮品刨冰披萨简餐,奶茶果汁,663,113.639902,22.911365,广东省东莞市厚街镇双岗大路27号101室
一品茶,奶茶果汁,725,113.615895,22.908227,沙田镇斜西村路89号
royaltea皇茶,奶茶果汁,64,113.614721,22.906896,广东省东莞市沙田镇^西中心区滨海商业街A2栋-121号铺位
辛发亭奶茶简餐,奶茶果汁,378,113.651468,22.908506,厚街镇新塘社区保和圩新宝路4号地铺
如初饮品(厚街中学店),奶茶果汁,2531,113.661394,22.93372,厚街镇深水坑路3号1楼(厚街中学附近)
85极致咖啡(南环路店),奶茶果汁,296,113.652783,22.929012,广东省东莞市厚街镇厚街南环路23号5号楼126室
金妹牛杂,奶茶果汁,28,113.61823,22.908479,沙田镇横流社区中心区三巷20号之一
粤味坊餐饮店,奶茶果汁,68,113.664286,22.903808,厚街镇家具大道东1号之一180室
85极致咖啡(君汇店),奶茶果汁,108,113.662183,22.902365,厚街镇君汇时代广场首层85极致咖啡（君汇店）
GONG CHA皇家贡茶,奶茶果汁,94,113.669304,22.909394,东莞市厚街镇桥头社区南路106号一楼之一
蔗茶(明丰店),奶茶果汁,243,113.661598,22.927317,广东省东莞市厚街镇康乐南路146号104室
珍珠奶茶,奶茶果汁,49,113.619252,22.914552,沙田镇横流区沙太一路40号
你我他,奶茶果汁,80,113.662725,22.915343,东莞市厚街镇莞太路厚街段385号102室
COLMAR科尔马,奶茶果汁,12,113.618805,22.922423,沙田镇横流南路30号（优卓教育城）
益健堂中药凉茶,奶茶果汁,16,113.65951,22.904018,东莞市厚街镇新塘社区凤凰路嘉怡地铺205号
皇茶新世纪,奶茶果汁,46,113.618514,22.902236,沙田镇^西村东港城沙田大道旁万隆商贸中心一楼广场
品悦贡茶,奶茶果汁,37,113.655834,22.908789,厚街镇厚街新塘一路132号104室
遇见休闲茶吧(桥头店),奶茶果汁,7,113.663927,22.913674,厚街镇桥头莲涌东路18号 遇见休闲茶吧
零下1C,奶茶果汁,24,113.651591,22.934168,东莞市厚街镇厚街社区永泰路55号之一
星座之约奶茶店(厚街店),奶茶果汁,54,113.666983,22.934155,厚街镇康乐南路3号143室
驿茶奶茶店(厚街新塘店),奶茶果汁,39,113.652739,22.907944,厚街新塘村越华百货一楼
御茶,奶茶果汁,72,113.662131,22.923135,广东省东莞市厚街镇莞太路厚街段250号104室
遇见茶饮小吃,奶茶果汁,12,113.666059,22.896072,广东省东莞市厚街镇南溪路40号108室
1258牛排(厚街分店),奶茶果汁,29,113.66117,22.9337,深水坑路70号101室
NEWBENX,奶茶果汁,73,113.663632,22.932067,广东省东莞市厚街镇厚街兴隆路90号701室
轻时刻,奶茶果汁,205,113.663448,22.937401,厚街镇教育路48号厚悦文创城临街商铺1018号轻时刻
皇茶溜溜奶茶店,奶茶果汁,23,113.66534,22.905034,厚街镇南五大街53号101室
六六茶,奶茶果汁,43,113.664021,22.931358,珊美社区康乐南路88号-1
小确茶(大润发店),奶茶果汁,16,113.655051,22.927668,东莞市厚街镇厚街社区南环路与吉祥路交汇处大润发商场一楼广场GC-01、02铺
香生咖啡店,奶茶果汁,16,113.663757,22.895371,东莞市厚街镇溪头社区东溪东路4号铺位之3
幸运树,奶茶果汁,3,113.64046,22.91097,厚街镇双岗村双岗大道80号一楼1号商铺
吾茶,奶茶果汁,606,113.615706,22.907249,广东省东莞市沙田镇横流海港路64号102室
思思奶茶店,奶茶果汁,257,113.616443,22.908452,沙田镇横流中心区二巷70号101室
青见之茶,奶茶果汁,285,113.615895,22.908559,沙田镇横流成业巷7号101室
果与茶.新中式水果茶(万达店),奶茶果汁,0,113.673599,22.941793,广东省东莞市厚街镇莞太路厚街段168号厚街万达广场1幢2单元1015室
素匠泰茶,奶茶果汁,48,113.662443,22.902532,厚街镇君汇时代广场一楼肯德基进来 素匠泰茶店
贡茶(康乐南店),奶茶果汁,0,113.667418,22.934816,广东省东莞市厚街镇康乐南路3号113号之一
SOHOK荷咖啡(大润发店),奶茶果汁,53,113.653477,22.929201,东莞市厚街镇厚街社区南环路新后街产业创新园E栋20号
壹YES！,奶茶果汁,9,113.655432,22.929206,厚街镇厚街社区湖光路25号一楼
小茶印象,奶茶果汁,31,113.655624,22.908928,厚街镇厚街新塘一街132号103室
禧御贡茶,奶茶果汁,2,113.618733,22.910782,沙田镇横流社区君汇缤纷城二层2FCB17号
85极致咖啡(乐南路店),奶茶果汁,2796,113.662886,22.928616,东莞市厚街镇珊美村康乐南路131路之一
悠情饮品店,奶茶果汁,71,113.618626,22.904252,沙田镇^西村东港商业步行街二期1201商铺之一
星果茶,奶茶果汁,23,113.666236,22.936767,厚街镇东风二路北二巷18号101室
一杯茶炸鸡汉堡,奶茶果汁,106,113.614052,22.993443,东莞市洪梅镇黎角村塘尾东十三巷2号
爆走丸族,奶茶果汁,154,113.661746,23.003611,北永村新兴北路119号之二
水果茶,奶茶果汁,264,113.65544,23.053091,望牛墩镇望联村三坊绿榕路44号之一铺
老地方奶茶小吃(朱平沙店),奶茶果汁,149,113.61193,23.029106,朱平沙村三十巷6号02
niuniu c&m(望牛墩店),奶茶果汁,776,113.661143,23.046428,广东省东莞市望牛墩镇望牛墩宝华路9号106室
7港9,奶茶果汁,254,113.656056,23.053672,望牛墩镇望联村绿榕路29号
摩登生活手工水果茶(望牛墩朱平沙店),奶茶果汁,43,113.613838,23.032036,望牛墩镇朱平沙商业街5号
灿茶,奶茶果汁,108,113.664935,23.05357,望牛墩镇镇中路21号七巧印象花园6号楼114室
汇茶(望牛墩店),奶茶果汁,168,113.656833,23.05241,广东省东莞市望牛墩镇聚福路6号
甜饮蜜语(望牛墩聚龙江店）,奶茶果汁,71,113.660288,23.061429,望牛墩镇聚龙江村望牛墩龙泉路75号
亲爱的蜂蜜茶,奶茶果汁,102,113.658867,23.053164,东莞市望牛墩镇望联同乐街2号101室
乌泷台式鲜焙原生茶,奶茶果汁,52,113.654561,23.053335,望牛墩镇望联村振兴路42号
微咖啡(望牛墩店),奶茶果汁,170,113.658955,23.052969,望牛墩镇望联村镇中路金辉苑首层39、40号
汉初墨鱼君,奶茶果汁,56,113.658424,23.054626,望牛墩镇同乐街镇中综合楼一楼19号铺
港饮之都,奶茶果汁,1,113.656231,23.0546,绿榕路8号
世代皇茶(中堂槎虻辏,奶茶果汁,81,113.629439,23.083079,东莞市中堂镇槎虼彘虼蟮7号
茶萃吧（中堂店）,奶茶果汁,720,113.660859,23.096544,东莞市中堂镇新兴路宏铭广场外围广场6号
niuniu c&m(中堂店),奶茶果汁,789,113.651049,23.096108,中堂镇雅苑路居益花园8栋203号商铺
CC烘焙,奶茶果汁,165,113.651192,23.096199,广东省东莞市中堂镇独舌小钓(中堂精品店)居益凯景中央
王子拉茶(中堂店),奶茶果汁,47,113.651427,23.095353,中堂镇振兴路与斗朗工业大道之间的莞都可苑A区9号楼111-A1号商铺
二月鲜茶,奶茶果汁,31,113.659249,23.096542,中堂镇中堂新兴路6号186室
鲜茶吧,奶茶果汁,64,113.657002,23.090859,广东省东莞市中堂镇中堂市场大门口3号铺
柠檬茶会跳舞（中堂店）,奶茶果汁,47,113.678336,23.099727,广东省东莞市中堂镇新鹤田村佳恩百货旁
淡淡零食铺子,奶茶果汁,39,113.677539,23.098559,中堂镇南潢路58号116室
贡茶（望牛墩店）,奶茶果汁,11,113.656042,23.054916,东莞市望牛墩镇绿榕路1号之二铺
微茶,奶茶果汁,5,113.669229,23.095266,中堂镇莞穗路中堂段51号125室
雪悦莎(新塘店),奶茶果汁,481,113.637349,23.127061,广州市增城区新塘镇新绣北路24号
世代皇茶(中堂店),奶茶果汁,271,113.660742,23.09654,东莞市中堂镇新兴路6号190室
1点点(新塘解放北店),奶茶果汁,519,113.614464,23.1171,广东省广州市增城区新塘镇解放北路115号首层（即广发银行对面）
新作の茶SunTea(解放北路店),奶茶果汁,487,113.614738,23.113182,广州市增城区新塘镇群星村何屋社解放北路50号
CoCo都可(牛仔城店),奶茶果汁,116,113.633986,23.123539,广东省增城区新塘镇牛仔城横路200号
天然果汁小吃店,奶茶果汁,51,113.632557,23.129746,牛仔城一路27号
盛世糖巢,奶茶果汁,1,113.658166,23.124294,广州市增城区新塘镇大敦村创业西路352号
世代皇茶,奶茶果汁,20,113.639074,23.113985,广州市增城区新塘镇新塘大道东40号福客百货右侧2号
茶知味,奶茶果汁,1,113.632944,23.128412,广州市增城区新塘镇工业加工区甘湖工业村牛仔城一路25号
Teatop 町茶道,奶茶果汁,397,113.65756,23.16828,广州市增城区新塘镇沙埔大道3号之四
唯斯奶茶炸鸡汉堡,奶茶果汁,47,113.643361,23.153975,广州市增城区新塘镇上邵村利而兴门前1号
CoCo都可(新塘万达店),奶茶果汁,219,113.617417,23.152205,广东省广州市增城区新塘镇顺欣居委会万达广场4020铺
1点点（新塘万达店）,奶茶果汁,440,113.61744,23.152395,广州市增城区新塘镇顺欣居委会万达广场四层4011B
熙茶(沙埔店),奶茶果汁,146,113.655856,23.169184,新塘镇荔新十一路1号荔富广场首层W03/04号
啵啵茶(上绍店),奶茶果汁,24,113.642153,23.154662,上绍村绍白路14号
百多乐特饮,奶茶果汁,46,113.65982,23.155115,广州市增城新塘镇岗尾村沙埔市场西外2号
王子拉茶（汇创店）,奶茶果汁,77,113.615504,23.12423,广州市增城新塘镇东坑三横中路1号2幢首层103商铺
初恋茶,奶茶果汁,8,113.660712,23.156664,新塘镇富华路12号-4-5
御卿贡茶(荔富广场店),奶茶果汁,56,113.655113,23.168145,广州市增城区新塘镇荔新路十一路29号
普盈士王子拉茶（沙埔广场店）沙埔广场店,奶茶果汁,39,113.660996,23.158979,广州市增城新塘镇岗尾村沙埔雅瑶大道3号
贡茶(中新店),奶茶果汁,80,113.613351,23.285181,中新镇风光路295号首层东面
蜜雪冰城（风光路店）,奶茶果汁,41,113.613327,23.285095,中新镇风光路295号之一
檬茶茶,奶茶果汁,439,113.677202,23.625806,广州市从化温泉镇温泉大道882号综合楼12号
查茶(温泉店),奶茶果汁,61,113.655913,23.645144,温泉镇碧泉路一横街26号
悦茶吧(温泉店),奶茶果汁,0,113.659011,23.641347,温泉镇温泉东路西五巷24号
贡茶GONGCJA,奶茶果汁,105,113.681151,22.757572,广东省东莞市虎门镇沙角西湖路口
贡茶(凤凰山店),奶茶果汁,76,113.695657,22.753081,广东省东莞市虎门镇虎门凤凰二路114号103室
世代皇茶(路东1店),奶茶果汁,128,113.70418,22.757377,东莞市虎门镇路东社区凤凰二路10号-1
聚缘坊,奶茶果汁,1,113.673494,22.757446,虎门镇沙角西正二路13号
SUMMER(五中店),奶茶果汁,139,113.677679,22.792475,广东省东莞市虎门镇虎门新港南路256号
三少爷的茶,奶茶果汁,1200,113.691588,22.810778,东莞市虎门镇金洲社区梁屋山边路三巷3号01铺
IM茶,奶茶果汁,482,113.683544,22.81419,连升路81号1126(亿州商务中心旁)
贡茶(大润发店),奶茶果汁,54,113.683114,22.813769,东莞市虎门镇虎门国际购物中心第5号楼第一层G-016号商铺
益禾堂(虎门黄河店),奶茶果汁,2624,113.675287,22.816225,广东省东莞市虎门镇虎门大道101号1058室
正新鸡排,奶茶果汁,138,113.674188,22.811534,虎门镇则徐长德路1号1栋128室
大卡司(东莞虎门店),奶茶果汁,141,113.682145,22.813629,东莞市虎门镇虎门国际购物中心第5号楼第一层G-016号商铺
黄记茶范烧烤奶茶,奶茶果汁,95,113.69111,22.809301,东莞市虎门镇金洲梁屋村前路十一巷8号
royaltea皇茶(银龙店),奶茶果汁,91,113.676286,22.815153,东莞市虎门镇金洲村委会银龙南路14号
85极致咖啡(虎门店),奶茶果汁,152,113.667363,22.820306,虎门镇运河北路96号铺
快乐番薯(虎门东方国际店),奶茶果汁,381,113.674049,22.817249,东莞市虎门镇东方国际皮具鞋业批发城第一层东06铺
贡茶(银龙店),奶茶果汁,231,113.676855,22.814724,广东省东莞市虎门镇金洲永康街26号101室
Royaltea皇茶(虎门店),奶茶果汁,90,113.684067,22.814139,东莞市虎门镇虎门国际购物中心第5号楼第一层G-015、G-016号商铺
香港地铁站奶茶果汁,奶茶果汁,144,113.670975,22.821036,虎门镇虎门寨人民中路290号（广隆蛋挞后面）
叔叔奶茶(南栅店),奶茶果汁,69,113.687605,22.783124,东莞市虎门镇三蒋新基十三巷1号
柠夏1度,奶茶果汁,30,113.66902,22.82155,东莞市虎门镇振华路43号
茶室(虎门店),奶茶果汁,26,113.687909,22.808679,虎门镇连升路44号天虹商场1202-1203号铺
雪洛可.饮品.冰淇淋.小吃(虎门店),奶茶果汁,75,113.676892,22.810467,虎门镇太沙路金源楼56号105室
茶颜蜜语,奶茶果汁,45,113.668789,22.818584,虎门镇则徐路127号
TIME时光奶茶果汁,奶茶果汁,32,113.668896,22.813792,虎门镇虎门长提路173号118室(龙泽居隔壁)
一芳台湾水果茶(女人街店),奶茶果汁,204,113.673176,22.820586,东莞市虎门镇仁德街69号铺位
琴海涛！汉堡！炸鸡！奶茶,奶茶果汁,52,113.705399,22.76275,广东省东莞市虎门镇路东路45号106室
七钟茶(黄河店),奶茶果汁,7,113.675856,22.815681,虎门镇虎门大道101号1028室
柠檬树(东风店),奶茶果汁,0,113.680762,22.790864,虎门镇集美四巷4号101室
royaltea皇茶(富民店),奶茶果汁,114,113.67296,22.818769,东莞市虎门镇银龙路24号富民时装城南区三楼精品街302-306
80后原茶鲜卒天然手作茶饮吧,奶茶果汁,18,113.675603,22.81726,东莞市虎门镇黄河时装城第一层广场6号铺
momo茶,奶茶果汁,50,113.683328,22.807752,虎门镇金洲社区南坊南路一巷82号
茶品(虎门店),奶茶果汁,76,113.669976,22.821379,广东省东莞市虎门镇虎门振华路9号102室
雪洛可,奶茶果汁,125,113.682866,22.784551,虎门镇南栅文明路十三巷2号105室
鹿角湾,奶茶果汁,35,113.682814,22.812113,东莞市虎门镇金洲社区北坊沙巷路二巷二号一楼（榕树头美福超市旁）
Love Moments,奶茶果汁,1,113.669578,22.818178,虎门镇太沙路富民小商品内衣批发市场12栋6号
柠C茶饮店(虎门店),奶茶果汁,45,113.673062,22.8167,广东省东莞市虎门镇虎门寨永安路6号1032室
地下铁（中心小学店）,奶茶果汁,8,113.669795,22.817189,东莞市虎门镇中心小学对面（地下铁奶茶店）
爱尚打包茶饮店,奶茶果汁,0,113.674827,22.816674,东莞市虎门镇虎门大道88号黄河中心大厦第一层铺位16号
NEW THINGS COMING,奶茶果汁,3,113.669216,22.817862,虎门先启教育左边
喜乐奶茶店潮汕小吃,奶茶果汁,1660,113.673577,22.835584,虎门镇博美市场路25号1栋3单元
HeyCafe(虎门店),奶茶果汁,1990,113.676733,22.829982,东莞市虎门镇人民北路429号永楷物业建新大厦106、107号地铺
一座一茶,奶茶果汁,381,113.675809,22.825618,虎门镇虎门人民路124号106室（东较场公交站对面）
HeyCafe(万科店),奶茶果汁,920,113.689676,22.821766,虎门镇虎门大道263号虎门万科金色里程二栋114号铺
强记甜品奶茶小吃,奶茶果汁,300,113.703884,22.837235,广东省东莞市虎门镇龙眼社区龙眼路61号
桔斯町奶茶轻食馆(虎门店),奶茶果汁,585,113.67388,22.836032,广东省东莞市虎门镇博美市场路66号1026室（辉联百货对面）
一茶一饭(万达店),奶茶果汁,382,113.684386,22.835483,东莞市虎门镇连升北路388号虎门万达广场5/6幢商铺309号-312号
转角零度茶(虎门店),奶茶果汁,112,113.671934,22.828839,虎门镇虎门博头路75号101室
益禾堂(女人街仁德路店),奶茶果汁,2859,113.673399,22.820957,广东省东莞市虎门镇虎门寨仁德街38号
快乐番薯(虎门万达店),奶茶果汁,306,113.683383,22.833957,东莞市虎门镇博涌社区连升北路388号万达广场2号门负一楼HMWD08号
琴海涛鲜果奶茶汉堡炸鸡,奶茶果汁,230,113.672939,22.836078,虎门镇博美市场路66号1083室
贡茶（万科店）,奶茶果汁,490,113.687418,22.826496,广东省东莞市虎门镇大卢向西二巷1号101室
CoCo都可（虎门仁德店）,奶茶果汁,225,113.673,22.821,广东省东莞市虎门镇虎门寨仁德街62号
米芝莲（虎门万达店）,奶茶果汁,85,113.683198,22.833283,东莞市虎门镇博涌社区连升北路388号万达广场室内步行街四层4033B号铺
圣洛雪奶茶,奶茶果汁,274,113.68396,22.811997,虎门镇金洲北坊沙巷路二巷4号102室
江边茶,奶茶果汁,449,113.673585,22.820751,虎门镇仁寿街19号）
地铁站港式奶茶(卢联店),奶茶果汁,56,113.686398,22.826235,虎门镇卢联农副产品综合市场8、9号
世代皇茶(虎门龙眼店),奶茶果汁,158,113.7005917,22.83335617,龙眼社区中林百货门口
老字号糖水店,奶茶果汁,82,113.667043,22.861319,东莞市虎门镇白沙社区一村商业西路13号
致青春奶茶小吃,奶茶果汁,39,113.704772,22.82997,广东省东莞市虎门镇北栅西安路21号106室
汴京茶寮(虎门万达店),奶茶果汁,87,113.684312,22.833904,虎门镇连升路82号虎门万达广场1栋150室
唐卡士水果茶简餐烧烤,奶茶果汁,52,113.673773,22.836272,虎门镇博美市场路64号1栋1031室（意法电商城）
觅糖手工坊,奶茶果汁,60,113.669673,22.817435,广东省东莞市虎门镇则徐新街5号102室
大台北茶吧,奶茶果汁,41,113.668762,22.830474,东莞市虎门镇镇口镇兴大道B33号一至三楼
琴海涛奶茶汉堡,奶茶果汁,46,113.683479,22.837245,虎门镇社岗路3号119室
爽口吧(赤岗店),奶茶果汁,104,113.707897,22.84616,虎门镇赤岗村西坊新区十巷五号财富公寓二楼
哥伦布奶茶果汁休闲吧,奶茶果汁,26,113.672059,22.835609,虎门镇博涌明苑路58号101室
大台北(虎门卢联店),奶茶果汁,14,113.685983,22.826024,东莞市虎门镇卢联市场大门口1号
莞茶,奶茶果汁,118,113.673614,22.822701,虎门镇虎门人民路158号（祥勇公寓）
MACU果一百奶茶果汁(虎门万达店),奶茶果汁,44,113.683517,22.834059,东莞市虎门镇博涌社区连升北路388号万达广场室内步行街3楼3052B号 (商3楼)
80後奶茶原茶鲜萃,奶茶果汁,65,113.66911,22.83159,虎门镇虎门镇兴路115号109室．新万悦超市
世代皇茶(赤岗大润发店),奶茶果汁,55,113.702493,22.841792,广东省东莞市虎门镇龙眼十一路48号101室
心妍茶现捞鸭脖,奶茶果汁,21,113.67469,22.836203,虎门镇博美市场路34号
诺茶馆,奶茶果汁,56,113.659703,22.84632,广东省东莞市虎门镇白沙路中104号101室
royaltea皇茶(万达店),奶茶果汁,75,113.68432,22.83469825,东莞市虎门镇连升北路388号虎门万达广场4幢商铺1015号
小茶堂黑金茶饮(大润发店),奶茶果汁,66,113.682339,22.813112,广东省东莞市虎门镇虎门长德路1号1064室
鹿角戏,奶茶果汁,45,113.707547,22.842827,广东省东莞市虎门镇赤岗南坊路18号之一
猴茶,奶茶果汁,1,113.686968,22.830627,虎门镇王屋向北五巷1号铺位(宜城公寓隔壁)
royaltea皇茶（万科金色里程店）,奶茶果汁,692,113.689188,22.822419,东莞市虎门镇虎门大道263号万科金色里程3号楼102号
鲜疯水果茶(仁德街店),奶茶果汁,27,113.673406,22.820915,东莞市虎门镇虎门寨仁德街46号
MeetCake,奶茶果汁,0,113.683028,22.834881,虎门镇连升路82号虎门万达广场2栋1801房
茶萃吧(赤岗店),奶茶果汁,0,113.704951,22.84235,广东省东莞市虎门镇赤岗路87号113室
转角奶茶,奶茶果汁,49,113.689412,22.824563,虎门北开沙塘路15号101室（卢屋）
royaltea,奶茶果汁,18,113.696456,22.822564,东莞市虎门镇郭武沙步头七巷2号
世代皇茶,奶茶果汁,0,113.669201,22.831115,虎门镇虎门镇兴路115号118室（镇口新万悦购物广场）
茶萃吧(赤岗店),奶茶果汁,18,113.701749,22.841335,广东省东莞市虎门镇龙眼十一路50号101室
爱斯芭蒂,奶茶果汁,8,113.702366,22.842165,广东省东莞市虎门镇赤岗南社二路1号之116室
密嘉鲜茶,奶茶果汁,0,113.721076,22.845108,广东省东莞市虎门镇虎门沙河路7号悦府3号楼105室
江叶茶饮品（白濠店）,奶茶果汁,269,113.660726,22.867285,白濠沿河一街52号
niuniu c&m(厚街店),奶茶果汁,457,113.663043,22.8663,东莞市厚街镇白濠社区绿洲路20号铺位之二
冰之岛(溪头店),奶茶果汁,68,113.656743,22.890941,厚街溪头西路一巷12号
茶掌门(溪头店),奶茶果汁,64,113.664356,22.890873,广东省东莞市厚街镇溪头东路13号102室（烧烤部落旁）
果味斯(南五富嘉生活广场店),奶茶果汁,57,113.66619,22.895723,厚街镇南五社区南溪路富嘉生活广场一楼2号
三无先生,奶茶果汁,26,113.664713,22.91034,厚街镇桥头社区桥南路25号之六铺
noblibli休闲茶水吧麻辣烫,奶茶果汁,25,113.661363,22.853072,东莞市虎门镇白沙大路中36号
茶萃吧,奶茶果汁,36,113.65337,22.88292,东莞市厚街镇沙塘社区伟辉商业街E栋02号
芋茶(珊美店),奶茶果汁,2362,113.666113,22.934445,东莞市厚街镇珊美社区榄树厦兴隆路东路1号楼之一
鲜c果茶,奶茶果汁,633,113.66679,22.93253,广东东莞厚街康乐南路十巷3号101室
青见之茶,奶茶果汁,1226,113.671189,22.941415,厚街镇康乐北路6号12号楼104室
快乐番薯(厚街明丰广场店),奶茶果汁,210,113.662585,22.92777,东莞市厚街镇珊美社区康乐南路145号明丰广场负一楼23号铺位
避风港饮品小吃,奶茶果汁,220,113.704931,22.932318,厚街镇汀山社区广场路未来街市A栋B12号
niuniu c&m(厚街中学店),奶茶果汁,361,113.662028,22.93571,广东省东莞市厚街镇厚街教育路22号101室
休闲奶茶吧,奶茶果汁,39,113.669386,22.910988,厚街镇元州东路8号101室（益龙公寓旁边）
贡茶,奶茶果汁,238,113.705531,22.93134,东莞市厚街镇汀山村汀山广场旁百悦商贸城C栋1C03号
岛滋古法黑糖奶茶店,奶茶果汁,43,113.671399,22.941633,广东省东莞市厚街镇康乐北路6号5号楼110室
蛋仔小茶(万达店),奶茶果汁,86,113.67303,22.942422,广东省东莞市厚街镇莞太路厚街段168号厚街万达广场1栋1单元3040室（三楼汤响隔壁）
港式饮品,奶茶果汁,39,113.662099,22.931301,厚街镇深水坑路111号101室
叁岛时尚饮品,奶茶果汁,45,113.665616,22.933859,厚街镇珊美社区兴隆路38号1号铺
三点三饮品,奶茶果汁,30,113.658737,22.928865,厚街镇三庄路94号101室
芦蜜欧(厚街店),奶茶果汁,236,113.670073,22.939414,广东省东莞市厚街镇康乐北路阳光商业城1号楼101室中国移动厅
小猪包站猪扒包,奶茶果汁,67,113.676845,22.931655,东莞市厚街镇河田社区六桂路河田小学旁商铺6号
最后防线(厚街汀山店),奶茶果汁,55,113.705832,22.931333,厚街镇汀山广场南二路1号1003室
明月珑茶,奶茶果汁,59,113.6605,22.9338584,厚街镇厚街教育路2号103室
世代皇茶,奶茶果汁,117,113.705139,22.931043,东莞市厚街镇汀山社区汀山广场路百悦商业中心广场A02
AnywayCake,奶茶果汁,48,113.666363,22.932036,厚街镇槐河路1号之一105室
嗨茶,奶茶果汁,62,113.707198,22.930866,厚街镇汀山广场路24号121室
森汇美食,奶茶果汁,137,113.670081,22.942014,广东省东莞市厚街镇裕鹤新村十巷6号102室
零下酷乐,奶茶果汁,73,113.679981,22.938492,东莞市厚街镇寮厦社区彩云西二路13号01铺位
御黑堂奶茶,奶茶果汁,44,113.670207,22.940178,厚街镇康乐北路6号1号楼105室
GUANCHA惯茶,奶茶果汁,41,113.664663,22.933514,厚街镇榄树厦鸿昌路10号101室
茶与花间,奶茶果汁,108,113.671633,22.941886,厚街镇康乐北路阳光商业城N座17号商铺
一木休闲吧,奶茶果汁,12,113.676779,22.93302,东莞市厚街镇河田社区六桂路75号1楼
贡茶,奶茶果汁,41,113.667008,22.933912,厚街镇珊美社区市场南路2号
添尝人间(厚街店),奶茶果汁,39,113.667759,22.935331,东莞市厚街镇珊美社区东风二路71号1楼之二铺
呦呦吧奶茶(寮厦市场店),奶茶果汁,32,113.682227,22.940779,厚街镇寮厦社区北环路寮厦市场2号广畅日用品店大门外1号铺
好芝汇,奶茶果汁,2,113.66406,22.932336,厚街镇兴隆路66号之一114室
冰之恋奶茶,奶茶果汁,41,113.70517,22.932299,东莞市厚街镇汀山社区广场未来街市临街小铺6号商铺
醇香贡茶,奶茶果汁,43,113.671433,22.954697,广东省东莞市厚街镇三屯工业大路133号132室
Smile,奶茶果汁,44,113.705323,22.931561,东莞市厚街镇汀山广场路百悦商业中心广场A05铺
天使之翼,奶茶果汁,4,113.674246,22.931733,东莞市厚街镇河田社区河边路14号
FELIGE和乐雪(厚街宝屯店),奶茶果汁,18,113.661797,22.948087,广东省东莞市厚街镇厚街大道西105号(裕展汽车美容旁边)
小心鸡,奶茶果汁,7,113.667568,22.93435,东莞市厚街镇珊美社区康乐南路南铭购物中心一楼A15栋
奶霸炸鸡,奶茶果汁,175,113.659751,22.928667,珊美社区电站路西二巷2号101室
DongShi懂事奶茶,奶茶果汁,698,113.662105,22.931606,深水坑路32号101室
正品饮品店,奶茶果汁,0,113.667659,22.944948,广东省东莞市厚街镇厚街中兴路44号101室
Pisces双鱼座奶茶(康乐店),奶茶果汁,114,113.669069,22.938212,厚街镇康乐北路22号121室
香港米芝莲(汉邦66店),奶茶果汁,697,113.663511,22.933109,厚街镇珊美社区兴隆路66号汉邦66广场一楼1073号铺
街头柠檬茶（大明塘店）,奶茶果汁,57,113.6553,22.936671,东莞市厚街镇厚街社区菊糖路29号
台湾木瓜牛奶成成De店,奶茶果汁,19,113.673219,22.943012,厚街镇宝屯社区康乐北路6号厚街万达广场1幢1021号
光合制茶,奶茶果汁,13,113.671547,22.940871,广东省东莞市厚街镇康乐北路阳光商业城西北3门E09座
蜜雪冰城（万达广场店）,奶茶果汁,0,113.673886,22.943884,厚街镇莞太路厚街段168号厚街万达广场1幢2单元1119室
37.2℃水果茶,奶茶果汁,0,113.657121,22.941288,广东省东莞市厚街新兴路1号123室
37.2°凉凉(厚街店),奶茶果汁,929,113.674497,22.953314,厚街镇三屯工业大道107号
快乐番薯(厚街万达二店),奶茶果汁,372,113.673769,22.942072,东莞市厚街镇宝屯村康乐北路6号万达广场购物中心永辉超市014号铺位
奉茶(厚街万达店）,奶茶果汁,45,113.672938,22.942,东莞市厚街镇宝屯社区康乐北路6号厚街万达广场1号门右手边沿地铁口方向1118商铺(外场)
CoCo都可(厚街万达),奶茶果汁,747,113.674,22.944,广东省东莞市厚街镇万达广场三楼3006A号商铺
卡蒂尼奶茶,奶茶果汁,560,113.669212,22.939181,广东省东莞市厚街镇厚街大道西8号106室
香港的茶n,奶茶果汁,89,113.689996,22.963078,广东省东莞市厚街镇陈屋社区陈屋大街18号之4
黄氏中訾牛奶甜品,奶茶果汁,38,113.666206,22.946561,广东省东莞市厚街镇厚街体育路35号102室
四云奶盖贡茶(厚街万达店),奶茶果汁,52,113.673904,22.943468,广东省东莞市莞太路厚街万达三楼3003贡茶
royaltea皇茶闪现汉堡（赤岭店）,奶茶果汁,73,113.697418,22.967789,厚街镇赤岭社区莞太路51号之9
追茗贡茶(万达9号店),奶茶果汁,59,113.6728564,22.94284501,东莞市厚街镇宝屯村康乐北路6号厚街万达广场1幢商业楼商铺1009号
冰海岸果汁,奶茶果汁,139,113.67932,22.9567,厚街镇厚道路西12号1117室
北格湾奶茶,奶茶果汁,22,113.684122,22.952097,广东省东莞市厚街镇将军路2号悦山花园2号楼107室
世界杯,奶茶果汁,27,113.69969,22.96649,厚街镇东明路商业街11号102室
追茗贡茶(万达34号店),奶茶果汁,25,113.6737237,22.94369412,东莞市厚街镇宝屯村康乐北路6号厚街万达广场1幢商业楼商铺1034号铺
七彩糖水&奶茶店,奶茶果汁,19,113.690064,22.963148,厚街镇陈屋社区陈屋大街18号的地道美食小长廊101号商铺
奶茶便利店,奶茶果汁,4,113.664297,22.93221,兴隆路74号
royaltea皇茶,奶茶果汁,22,113.662395,22.932564,珊美社区兴隆路66号汉邦六六广场商场一层03号铺
益禾堂(万达店),奶茶果汁,2988,113.67443,22.943878,广东省东莞市厚街镇莞太路厚街段168号厚街万达广场1幢2单元1049室
遇见下午茶,奶茶果汁,0,113.672032,22.959163,厚街镇沙岗厦大路1号106室
TIGER SUGAR 老虎堂黑糖壳,奶茶果汁,42,113.682238,22.95226,广东省东莞市厚街镇厚道路12号1103室
御黑堂,奶茶果汁,140,113.678893,22.959013,厚街镇厚道路东8号102室
港式茶,奶茶果汁,0,113.671258,22.940966,东莞市厚街镇康乐北路6号6号楼114室
茶可可・奶茶,奶茶果汁,119,113.664926,23.001747,东莞市道蛘虮庇来褰鹋Ｂ151号2号铺
1314果蔬氧吧(道虻),奶茶果汁,210,113.681627,23.007054,道蛘虼罅胙敬迓硭惶列∽榍哦大街手信街自编：C区10号
niuniu c&m(道虻),奶茶果汁,1165,113.682451,23.007863,东莞市道蛘虼罅胙敬迩哦大街C31号
陆茶道,奶茶果汁,149,113.665794,23.001397,东莞市道蛘蛘⒖诖逍绿锬下31号
余生・奶茶小吃店,奶茶果汁,60,113.677837,23.010767,道蛘虻蛐路崧26号102室
茶吧小食(道蛐『拥),奶茶果汁,77,113.665105,23.023485,小河历江围一巷9号 公交站旁
一杯心情（港式饮品）,奶茶果汁,62,113.648545,22.962902,道蛘蚰细笾新纺1号1023
周五晚,奶茶果汁,36,113.682326,23.007804,道蛘虻虼笄哦大街149号
前院For TEA,奶茶果汁,47,113.679847,23.00555,东莞市道蛘虻蚯哦大街19号101室
1314果蔬氧吧(小河店),奶茶果汁,24,113.6654,23.023472,道蛘蛐『哟辶そ围小组沥江围办公室下4号
麦芙伴客,奶茶果汁,31,113.705015,22.989603,广东省东莞市南城区天安数码城创意大街竹隐路A104麦芙伴客
悠元素,奶茶果汁,21,113.707564,22.984435,南城街道黄金路96号1栋111室
焙可儿,奶茶果汁,24,113.677462,23.005145,东莞市道蛘蛘⒖诖逍鲁橇阜崧テ吆牌涛
朕来了(道虻),奶茶果汁,0,113.67572,23.007824,道蛘虻蛐路崧2号101室
港源冰室,奶茶果汁,1,113.68593,22.978331,广东省东莞市道蛘蚓核偃车会(道虻)蔡白区第一工业区
世代皇茶,奶茶果汁,4,113.677494,23.007508,广东省东莞市道蛘虻蛘裥寺范201号104室
时光小屋,奶茶果汁,4,113.678573,23.006032,广东省东莞市道蛘虻虻篮衤6号133室
HKYTEA,奶茶果汁,34,113.675911,23.00746,道蛘蛘⒖诖逭⒖诙涡『勇9号2楼
LaDeesse,奶茶果汁,1,113.678557,23.014299,道蛘虼罅胙敬逍『勇88号
壹式奶茶店,奶茶果汁,5,113.679653,23.003687,东莞市道蛘蚣么ü愠∫际侥滩璧
云至尚24小时智能便利店(小桔店),奶茶果汁,0,113.706226,22.989371,南城街道竹隐路2号1栋112室
想酷饮手抓饼酸辣粉(万江新村店),奶茶果汁,211,113.693545,23.031887,万江街道新村社区卢屋光辉大道6号111
DKJDKJ咖啡奶茶(加盟大口九品牌道蛐『臃值),奶茶果汁,68,113.664542,23.025167,东莞市道蛘蛐『哟褰南上路三巷34号铺
彩虹站,奶茶果汁,18,113.693768,23.034516,东莞市万江街道万江大新路236号105室
贡茶(共联社区店),奶茶果汁,53,113.706195,23.035264,万江街道共联商业街58号102室
然茶,奶茶果汁,20,113.694587,23.033558,东莞市万江街道新村社区大新南路115号
茶驿站,奶茶果汁,1,113.705601,23.036056,广东省东莞市万江街道万江街道工联社区居务监督委员会共联社区
柔妈私房,奶茶果汁,218,113.69379,23.034546,万江街道大新南路236号
汴京茶寮(万江店),奶茶果汁,4,113.727687,23.040181,万江街道万道路万江段21号1050室
茶萃吧（小享汇达广场店）,奶茶果汁,139,113.691587,23.063469,万江街道小享社区帅府街1号之2商铺
潮恬茶饮(万江店),奶茶果汁,69,113.697019,23.078266,万江街道  蛄厚德路1号102室(蛄市场)
Q Tea,奶茶果汁,2,113.70453,23.053282,东莞市万江街道严屋社区新城3路4号商铺
麽啡休闲茶饮(中堂店),奶茶果汁,917,113.659483,23.091064,东莞市中堂镇鸿富步行街东一区13号
快乐番薯（中堂鸿富店）,奶茶果汁,165,113.659031,23.091199,广东省东莞市中堂镇广场路1号鸿富花园西区商铺1-8
COOLHITEA酷喜,奶茶果汁,0,113.666568,23.12087,广州市增城区新塘镇大墩村创新南路蛇洲尾街12号
柠檬茶会跳舞,奶茶果汁,90,113.673943,23.16787,新塘镇沙埔银沙工业区站前路9号
卡诺琳(小吃饮品店),奶茶果汁,18,113.659458,23.217247,永宁街宁西南香街7号102
迅影手游,奶茶果汁,44,113.697769,23.274368,朱村街富裕路51号
满辉佳口友休闲饮吧,奶茶果汁,38,113.6979,23.273339,朱村街文明路87-1号
royaltea皇茶,奶茶果汁,18,113.69828,23.274397,朱村街富裕路53号
至纯贡茶,奶茶果汁,1,113.700049,23.274188,朱村街富裕路30号
御可贡茶(南洋理工店),奶茶果汁,1,113.617347,23.579967,广州市从化区江埔街环市东路1123号实训2号楼2010A铺
甘茗城奶茶与饭团(中大南方店),奶茶果汁,1573,113.677983,23.617576,广州市从化区温泉镇乌土村老虎形经济社
益禾堂(中大店),奶茶果汁,3693,113.680398,23.629742,温泉镇中大南方学院后门
HEA茶,奶茶果汁,0,113.647766,23.625055,温泉镇温泉大道468号
大七町(商业城店),奶茶果汁,0,113.680193,23.630101,笃行路20、22、24号中山大学南方学院商业中心一楼1F-005
爽爽甜品,奶茶果汁,48,113.712589,22.789906,东莞市长安镇上角社区角兴街76号
茶萃吧茶饮奶茶,奶茶果汁,481,113.733062,22.787566,东莞市长安镇厦边社区银城一路利商一街32号东尚百货一楼D1铺
蜜语茶言,奶茶果汁,647,113.720004,22.810912,虎门镇大宁麒麟中路92
茶萃吧(兴濠城店),奶茶果汁,93,113.712281,22.795867,长安镇上南路71号兴濠城百货
七杯茶,奶茶果汁,360,113.712833,22.79001,长安镇角兴街69号101室
85极致咖啡,奶茶果汁,44,113.712278,22.795905,东莞市长安镇上角社区上南路71号兴濠城购物广场一楼街铺002号铺位
heyday皇茶,奶茶果汁,54,113.738275,22.797713,东莞市长安镇厦岗社区福荫路北40号
鲜兹百味麻辣烫(厦边店),奶茶果汁,63,113.733027,22.788109,东莞市长安镇厦边社区银城一路利商一街39号、41号
小岛の家,奶茶果汁,128,113.735013,22.816403,广东省东莞市虎门镇树田路126号
biu茶风暴,奶茶果汁,94,113.750568,22.783572,长安镇长安振安中路396号10号楼114室
芬享贡茶,奶茶果汁,55,113.740387,22.77779,长安镇厦岗社区福海路九巷1号(悦华大厦)
御用贡茶,奶茶果汁,18,113.714594,22.796104,东莞市长安镇上角社区上南路59号A栋客都汇百货商场F1-77铺位
8℃茶,奶茶果汁,7,113.749889,22.782548,长安镇长安振安中路396号2号楼134室
皇茶(兴濠城店),奶茶果汁,174,113.712281,22.795867,东莞市长安镇上角上南路71号121室
露也茶饮蛋糕(长安店),奶茶果汁,35,113.80015,22.811913,长安镇长盛社区长青南路303号商业广场4015、4016
茶芝典,奶茶果汁,0,113.729993,22.784454,长安镇沙边禾成东一街12号之一102室
拐个弯(大宁店),奶茶果汁,19,113.720552,22.811364,东莞市虎门镇大宁社区麒麟中路48号1楼2号铺
茶芝果趣,奶茶果汁,10,113.734337,22.799337,广东省东莞市长安镇厦边大街167号
私薇堂(赤岗店),奶茶果汁,140,113.706595,22.844282,东莞市虎门镇赤岗西坊路39号一楼A铺
贡茶GONGCHA(黄村店),奶茶果汁,265,113.721601,22.845865,广东省东莞市虎门镇黄村东区六巷1号1楼之一（天天惠百货旁）
niuniu c&m(虎门店),奶茶果汁,131,113.707733,22.813134,东莞市虎门镇大宁社区长德路168号虎门万科城（三区）130号商业楼102，103号
琴海涛麦维克奶茶汉堡（怀丰商业中心店）,奶茶果汁,404,113.73596,22.838453,东莞市虎门镇怀德社区怀北路怀丰商业步行街广场摊位1号铺
茶萃吧（黄村店）,奶茶果汁,37,113.719572,22.843682,黄村工业路1号黄村市场A栋空地1号铺
royaltea皇茶,奶茶果汁,40,113.703601,22.842072,虎门镇龙眼社区赤岗大道旁万业百货第12铺
洛伊之恋冷饮小吃(黄村店),奶茶果汁,0,113.72392,22.852369,广东省东莞市虎门镇黄村泉井东路21号102室
冰点咖啡,奶茶果汁,50,113.716505,22.927184,东莞市厚街镇环冈社区湖景大道北25号
恋茶,奶茶果汁,13,113.709448,22.929883,东莞市厚街镇汀山社区广场路53-9号
优亿佳烤猪蹄(蜂汇店),奶茶果汁,286,113.721767,22.982547,东莞市南城街道宏一路1号2栋204室
KEPLER开普勒精致手作茶坊(西湖乐园店),奶茶果汁,372,113.755945,22.967826,南城街道嘉时胜体育公园西湖乐园内A区5号
糖吉甜品(广酒店),奶茶果汁,21,113.718447,22.937099,东莞市厚街镇汀山社区生态文化教育园区广东酒店管理职业技术学院餐饮街2-6号的商铺
快乐番薯(南城蜂汇店),奶茶果汁,352,113.72141,22.98248,东莞市南城街道鸿福社区宏二路峰汇广场负二楼永辉超市A9600013号
小鹿轻茶,奶茶果汁,17,113.721818,22.98194,南城街道袁屋边社区宏二路1号蜂汇广场2栋商铺109
茶富饮品(创新学院店),奶茶果汁,16,113.726425,22.93224,东莞市厚街镇环岗社区创新学院斜对面猪亮巷4号铺位
联宇茶吧,奶茶果汁,25,113.725683,22.98859,广东省东莞市南城街道宏图路55号聚大电商产业园
忍者切果园,奶茶果汁,2,113.716826,22.985054,南城街道车站路3号2拣105室（粤北人家后面）
野喵,奶茶果汁,0,113.724641,22.989138,南城街道周溪社区众利路72号众利综合楼停车场入口处
念茶,奶茶果汁,6,113.718497,22.98399,南城街道车站路3号1019室
7度柠檬,奶茶果汁,0,113.723412,22.985777,南城街道鸿福社区精英名都B1商铺
想酷饮(袁屋边店),奶茶果汁,654,113.720041,22.990633,袁屋边阜东路64
御品贡茶(塘贝店),奶茶果汁,1214,113.742016,23.003442,广东省东莞市南城街道塘贝新村九巷6号101室
茶驿站・奶茶小吃,奶茶果汁,436,113.728903,23.008611,东莞南城富民步行街时尚坊G09.11店铺。
Q先生甜品奶茶,奶茶果汁,808,113.742173,23.003819,东莞市南城街道胜和社区塘贝新村十一巷1号之二
悟茶,奶茶果汁,487,113.721655,22.982768,莞市南城街道鸿福社区宏二路1好蜂汇广场3栋101，102号铺
汇茶(东莞步行街店),奶茶果汁,1111,113.734193,23.005123,东莞市南城街道富民商业步行街H60号铺位
冰度,奶茶果汁,162,113.705529,22.985872,南城街道和后村八巷16号101室
niuniu c&m(恒大店),奶茶果汁,1360,113.72425,22.97932,东莞市南城街道宏成五金家居装饰城B区07栋105号
卤一品・奶茶甜品・卤味(南城店),奶茶果汁,167,113.720856,22.991126,南城街道袁屋边阜东路37号104室
茶叔(南城店),奶茶果汁,673,113.734946,23.01354,东莞市南城街道篁村社区田心村后310号
皇茶(南城店),奶茶果汁,190,113.729584,23.008312,广东省东莞市东莞东莞市南城街道富民步行街时尚坊G05
小茶堂(浙商店),奶茶果汁,299,113.728415,22.978707,东莞市南城街道东莞大道南城段430号1栋1001室
三F简餐sansoul(南城店),奶茶果汁,154,113.728767,22.978668,南城街道东莞大道蛤地地铁站旁浙商大厦负一楼三F
洪记世家甜品(南城店),奶茶果汁,571,113.741782,23.013282,东莞市南城街道亨美社区大亨街11号
黑泷堂(浙商大厦店),奶茶果汁,518,113.728666,22.97881,南城街道东莞大道南城段430号浙商大厦负一楼（小茶堂与肯德基中间的电梯下负一楼或从地铁蛤地站A出口下来负一楼）
老虎堂黑糖专,奶茶果汁,300,113.738937,23.005859,广东省东莞市南城街道塘贝北路6号1062室
小气茶(南城富民店),奶茶果汁,231,113.730158,23.007946,广东省东莞市南城区富民步行街H区小气茶
nicetea奶思甜品(南城店),奶茶果汁,135,113.707108,22.984834,南城白马梅园63号
贡茶（悦尚网咖店）,奶茶果汁,52,113.706706,23.009162,东莞市万江街道简沙洲社区坝新路如一酒店旁悦尚网咖一楼贡茶。
Homie私房茶,奶茶果汁,94,113.733259,23.010178,南城街道宏远社区广东兆炫科创园A1009
西檬,奶茶果汁,86,113.735621,23.003825,南城街道新基社区风景街创意坊美食走廊L1-15号铺
茶一巷(享美红棉店),奶茶果汁,56,113.743928,23.012674,广东省东莞市南城街道亨美红棉路58号101室他与她
寻吻王子拉茶,奶茶果汁,46,113.722142,22.982938,宏二路1号蜂汇广场4号楼一楼2015号铺
欧麦喜手摇茶(南城店),奶茶果汁,127,113.728658,23.003841,东莞市南城街道大门前坊十一巷133号101室
糖果茶饮,奶茶果汁,47,113.706936,23.010105,广东省东莞市万江街道简沙洲商业街(顺众美食扎啤街)安怡居小区
royaltea皇茶,奶茶果汁,44,113.736149,23.003248,广东省东莞市南城街道莞太路南城段121号21栋117室
麦芙伴客,奶茶果汁,43,113.728534,22.978741,东莞市南城街道东莞大道南城段430号3栋128室、129室
鹿谷茶馆,奶茶果汁,52,113.737394,23.007426,东莞市南城街道鸿福社区莞太路115号旺南驹大厦4号商业楼街铺1111号大鼓米线旁
醉茶-鲜牛乳奶茶(下坝店),奶茶果汁,87,113.732998,23.0265856,东莞市万江街道坝头社区下坝旧村7号之二
春之物语奶茶,奶茶果汁,20,113.728745,23.003011,广东省东莞市南城街道新基路7号108室
六悦里,奶茶果汁,55,113.725599,23.0156398,广东省东莞市南城街道金丰路3号1113室
品华居烘培,奶茶果汁,29,113.705549,22.98573,东莞市南城街道白马社区翠园街东五巷5号B
茶意,奶茶果汁,39,113.737812,23.020707,南城街道银丰路15号109室
张记仙豆糕(南城店),奶茶果汁,39,113.744861,23.015484,南城街道鸿福路90号106铺
蒂米雪,奶茶果汁,14,113.732018,23.007159,南城街道富民商业步行街叶形铺位旁H63号铺位
寸茶,奶茶果汁,73,113.740713,23.016471,广东省东莞市南城街道鸿福西路南城段80号124室
@艾特蛋糕.甜点.水果茶(塘贝店),奶茶果汁,107,113.739824,23.00419,南城街道上边甲新村五巷3号101室
御贡茶(西平店),奶茶果汁,13,113.750893,22.989391,东莞市南城街道西平社区东二路彭眼民生楼21号
雪朵拉SNOWDORA,奶茶果汁,76,113.740375,23.013696,南城街道莞太路南城段60号101室
蔓沫咖啡(江南世家店),奶茶果汁,11,113.729989,23.017029,广东省东莞市南城街道江南世家
素岛泰茶,奶茶果汁,14,113.753968,22.991181,东莞市南城街道宏伟三路33号1095室景湖荣郡东南门95铺
茶舞奶茶,奶茶果汁,11,113.729292,23.008688,东莞市南城区富民步行街时尚坊G26号铺
MR.LEE李先生饮品店,奶茶果汁,1,113.739418,23.008904,东莞市南城街道三元路综合商住楼125B号地面铺位
怡香贡茶GONGCHA,奶茶果汁,3,113.734303,23.003253,东莞市南城街道新基社区莞太路133号榕树下体验广场A栋120铺位
茶萃吧,奶茶果汁,6,113.706531,23.0104246,东莞市万江街道简沙洲社区安怡居小区安兴街商铺A11号
叶荟,奶茶果汁,2,113.737378,23.017247,东莞市南城街道鸿福社区鸿福路72号天诚国际09号铺
奉茶(旺南世贸店),奶茶果汁,3,113.73762,23.007727,广东省东莞市南城街道旺南世贸大厦三楼
广雅茶(南城店),奶茶果汁,53,113.720317,22.990769,南城街道袁屋边社区阜东路美食广场A5号铺位
岛滋古法黑糖(汇海新天地店),奶茶果汁,99,113.728961,22.978654,南城街道东莞大道南城段430号3栋负1层144室
乐檬茶,奶茶果汁,0,113.735789,22.999283,新基社区香园路香园街27号
侍君饮咖啡奶茶小吃,奶茶果汁,28,113.709101,22.988085,广东省东莞市南城街道苏屋坡一巷17号
叮当茶,奶茶果汁,131,113.735823,23.011623,广东省东莞市南城街道篁村工业街11号106室车公馆旁叮当茶店
三c半Tea,奶茶果汁,130,113.728213,23.007731,南城街道新基社区陈屋村一巷1号101室
茶丸家（旺南世贸店）,奶茶果汁,73,113.737059,23.006648,南城区旺南世贸中心1号门对面茶丸家
功夫颜茶,奶茶果汁,40,113.74421,23.01529,广东省东莞市南城街道鸿福路88号152室
漫时光烘焙,奶茶果汁,3,113.737715,23.022531,南城街道筷子涌南路2号118室
一港奶茶,奶茶果汁,42,113.71797,22.990171,南城街道袁屋边阜东路81号101室
royaltea皇茶,奶茶果汁,12,113.703697,22.990222,东莞市南城街道鸿福社区黄金路1号东莞天安数码城F1栋107号之一
悦茶堂(旺南店),奶茶果汁,24,113.738051,23.008121,广东省东莞市南城街道三元路旺南世贸大厦3楼电影院旁
HEERETEA东喜鲜萃茶,奶茶果汁,84,113.737906,23.007828,广东省东莞市南城街道莞太路南城段115号4号楼133室
茶咖(万科金悦香树花园店),奶茶果汁,0,113.727679,22.989847,南城街道鸿福社区宏图大道64号万科金悦香树花园3号商业楼商铺103号
LicoPark Fruit 甘草水果,奶茶果汁,1,113.747066,22.992096,东莞市南城街道西平社区西平三路88号金汇商夏105
甜不甜奶茶(南城店),奶茶果汁,15,113.727088,22.988109,南城街道宏图路65号3栋133室
小茶堂,奶茶果汁,1,113.72202,23.008979,广东省东莞市南城街金丰路10号1099小茶堂
皇茶(旺南店),奶茶果汁,32,113.738119,23.007348,东莞市南城街道鸿福社区莞太路115号旺南驹大厦4号商业楼二层2012号商铺
royaltea皇茶(桃园雅居店),奶茶果汁,80,113.723841,23.014916,东莞市万江街道胜利社区赵屋胜利南路69-10号（悦尚百货斜对面）
芒果捞（西平店）,奶茶果汁,56,113.753578,22.995571,东莞市西平宏伟路家乐福一楼上行手扶电梯处
北纬九度,奶茶果汁,0,113.732544,23.016175,东莞市南城街道宏远社区运河东三路116号沿河路商住区E1前座4号商铺
摩柠咔轻茶,奶茶果汁,0,113.744861,23.013998,广东省东莞市南城街道黄金园街西四巷9号201室
茶稻谷(第一广场店),奶茶果汁,0,113.75241,22.995138,宏伟路未来世界第一广场5号1147室（6号小木屋）
鹿角巷,奶茶果汁,0,113.695148,22.980344,石鼓花园路6号3栋104室
易坊咖啡,奶茶果汁,0,113.743463,22.986131,绿色路150号1栋A112铺易坊咖啡店
予乐饮食店,奶茶果汁,14,113.714002,22.991411,南城街道环博坊福寿街6号之一
Tea shop(万江中学店),奶茶果汁,166,113.708801,23.040311,东莞市万江街道水蛇涌社区泰新路165号泰库文化创意产业园1号楼一层110、111号铺
甜心茶语,奶茶果汁,637,113.729074,23.040584,万江街道万道路万江段21号江滨花园翠丰苑2栋129室
快乐番薯(万江家汇广场店),奶茶果汁,205,113.716272,23.035263,广东省东莞市万江街道万道路万江段27号家汇商业广场5栋155室
CoCo都可（A南摩店）,奶茶果汁,971,113.726,23.036,广东省东莞市万江区华南摩尔A区首层（天和百货进门口/肯德基旁边）
皇茶,奶茶果汁,815,113.737059,23.051656,东莞市万江街道万江社区育才路99号商业楼门口1号商铺
niuniu c&m(阳光海岸店),奶茶果汁,189,113.714711,23.02995,东莞市万江街道新城社区阳光海岸11栋105-2号铺
茶千岁,奶茶果汁,195,113.736313,23.048315,万江街道万江万福路24号109室
嘻嘻烘焙坊,奶茶果汁,221,113.730602,23.050231,东莞市万江街道莞穗路尚峰温莎堡117铺
奶茶37.2度,奶茶果汁,73,113.720965,23.042338,万江街道金鳌路16号1197室
川町太郎奶茶屋(万江店),奶茶果汁,56,113.724427,23.03457165,东莞市万江区新城社区万江路南10号华南摩尔A1区一层S1-19、20号商铺
茶驿站(南城店),奶茶果汁,232,113.738555,23.01802,南城街道胜和社区联益二村新围村67号
冰之岛茶饮,奶茶果汁,56,113.715453,23.062093,东莞市万江街道石美社区莫屋大街40号
前院 For TEA,奶茶果汁,42,113.710167,23.058112,万江街道蓑福路小江段606号113室（恒大帝景）
粤色茶颜(万江义乌店),奶茶果汁,93,113.710455,23.030993,万江义乌小商品城小吃街F004粤色茶颜
GOODTEA古的茶(华南摩尔店),奶茶果汁,105,113.725171,23.03528,万江街道万道路万江段24号华南摩尔主题购物公园8栋1003室
奈思(万江店),奶茶果汁,31,113.735378,23.047542,万江街道万江万福路152号1010室
小馆(都会广场店),奶茶果汁,27,113.734828,23.048527,万江街道新城社区都会广场中心广场2号铁皮屋
钻茶,奶茶果汁,68,113.721855,23.05854,东莞市万江街道石美社区友谊路168R
Zoe Tea Shop祖奥尔饮食,奶茶果汁,27,113.734282,23.029599,东莞市莞城博夏社区工农路88号（工农8号）29号楼6号
茶物语（华南Mall店）,奶茶果汁,16,113.727913,23.036058,东莞市万江街道新城社区华南摩尔BC区M88H-6商铺
微茶,奶茶果汁,53,113.735522,23.049072,万江街道万江万福路152号1026室
茶萃吧(石美店),奶茶果汁,33,113.72153,23.055332,东莞市万江街道石美社区石美大道福嘉百货005号铺
解忧吧,奶茶果汁,15,113.713453,23.062418,万江街道拔蛟窝东环路19号153室
SweetCoener甜蜜转身,奶茶果汁,4,113.744178,23.014889,南城街道鸿福路88号123铺
100%鲜榨果蔬汁,奶茶果汁,7,113.727246,23.036428,东莞市万江区新城社区万江路华南摩尔嘉荣超市HN03-2铺位
YOSNOW柚雪Tea(家汇生活广场店),奶茶果汁,15,113.715437,23.034798,东莞市万江街道新城社区万道路与四环路交汇处家汇生活广场3号商业、办公楼四层4052号商铺
蜜悦猪扒包,奶茶果汁,52,113.739401,23.048139,万江街道东堤路十七巷1号101室
麽啡休闲茶饮(道虻),奶茶果汁,210,113.689625,23.019457,东莞市道蛘虿平村万道路华科城创新岛产业孵化园内第12栋01号商铺
百香缘休闲小站(万江家汇店),奶茶果汁,24,113.714161,23.033597,万江街道万道路万江段29号之一102室
楼上港茶,奶茶果汁,11,113.709611,23.055458,万江街道泮溪路1号182室
金希宝咖啡厅,奶茶果汁,25,113.745218,23.025198,东莞市南城街道胜和社区莞太路胜和路段21号美佳大厦一楼大堂
尚唯茶,奶茶果汁,1,113.70946,23.035587,东莞市万江街道共联社区金龙路西39号B
8090鲜萃茶,奶茶果汁,1,113.716634,23.029453,万江街道万道路万江段28号1号楼112室
漾漾红贡茶,奶茶果汁,1,113.711151,23.031838,东莞市万江街道义乌小商品城L-022商铺
老虎堂黑糖？恰は逝Ｄ(万江店),奶茶果汁,341,113.719665,23.042835,东莞市万江街道万江工业街15号1255室
心时光奶茶小吃店,奶茶果汁,4,113.720165,23.042682,万江街道万江工业街24号107室（大莲塘农贸市场旁）
COSMOS(万江店),奶茶果汁,0,113.715691,23.033382,广东省东莞市万江街道万道路万江段27号家汇商业广场5栋147室
三生手工擂茶,奶茶果汁,0,113.725236,23.034956,万江街道万江华南摩尔A2区1078铺
恬品奶茶果汁小吃披萨车仔面,奶茶果汁,382,113.722494,23.078513,高墩蛘裥硕六横路15号高洞逦对面
馋嘴猫,奶茶果汁,129,113.724976,23.0742,东莞市高墩蚋墩裥硕四横路11号101室
niuniu c&m(万江店),奶茶果汁,335,113.726699,23.05728,东莞市万江街道友谊路石美茶城35号商铺
快乐番薯（高都稳俚辏,奶茶果汁,227,113.7220037,23.07725434,广东省东莞市高墩蛘裥四下78号嘉荣超市GB1F08109
遇见の奶茶,奶茶果汁,46,113.717282,23.066788,万江街道莫屋蟠龙北街七巷15号101室
小茶印象,奶茶果汁,20,113.71962,23.081637,高墩蚋墩裥四下272号102室
半糖奶茶小吃鸡排车仔面,奶茶果汁,191,113.724151,23.079819,高墩蛘裥硕六横路42号101室
木子屋奶茶吧,奶茶果汁,66,113.729018,23.07635,东莞市高墩蚋洞逭裥硕四横路23号
小时光奶茶,奶茶果汁,10,113.72844,23.078272,东莞市高墩蚋抖联新村六街6号101室
亲爱的蜂蜜茶(拔蛟窝河东路店),奶茶果汁,16,113.713273,23.064106,广东省东莞市万江街道拔蛟窝河东路十二巷6号101室
DKJ.奶茶.小吃,奶茶果汁,256,113.712271,23.113076,中堂镇三涌综合市场西边1号
小茶湾,奶茶果汁,61,113.742787,23.0961,东莞市高墩蜉镐曛新69号102室
董弟鸡蛋灌饼,奶茶果汁,47,113.713873,23.089035,东莞市高墩蚺返诵麓迨六巷10号101室
梦轩茶语吧,奶茶果汁,1,113.7374602,23.09729837,东莞市高墩蛸沙村中心中路236号一楼街铺
鲜茶吧,奶茶果汁,58,113.711841,23.112508,东莞市中堂镇南潢路316号101室
熙茶,奶茶果汁,114,113.731687,23.275733,朱村街广州大学松田学院后门日成广场
DKJDKJ咖啡茶饮,奶茶果汁,115,113.731701,23.276377,朱村街朱村大道东372-1号日成商业广场P102号商铺
创茶,奶茶果汁,44,113.695434,23.273412,朱村街文明路89号
乐茶道(长兴店),奶茶果汁,24,113.7872976,22.7245671,深圳市宝安区沙井街道沙一万安路长兴科技园四栋16号
茶萃吧,奶茶果汁,111,113.773909,22.764075,长安镇兴发南路16号105
世代皇茶(上沙店),奶茶果汁,152,113.749662,22.782153,东莞市长安镇上沙社区振安中路396号中南商贸城佳得旺购物广场一楼04号铺
甘茶初心,奶茶果汁,230,113.760351,22.77492,广东省东莞市长安镇猫山北路95号1号楼114室
言茶,奶茶果汁,252,113.772066,22.758693,东莞市长安镇长安兴发南路54号102室
royaltelt皇茶,奶茶果汁,43,113.784649,22.757675,东莞市长安镇乌沙海滨路91号101室
茶点点(家美店),奶茶果汁,22,113.741763,22.782634,东莞市长安镇厦岗振安中路807号107室
茶驿站,奶茶果汁,41,113.778327,22.776335,长安振安中路197号103室
茶萃吧(老市场店),奶茶果汁,386,113.765723,22.791166,东莞市长安镇沙头社区市场街35号
柠檬达人,奶茶果汁,157,113.749504,22.781155,长安镇振安中路上丰商业步行街前门B5号
世代皇茶(南区店),奶茶果汁,321,113.760915,22.775244,东莞市长安镇沙头社区猫山北路95号一栋一楼C17号
